{
    "country": "Canada",
    "code": "CA",
    "cities": [
        {
            "city": "Abbotsford",
            "region": "02",
            "country": "CA",
            "latitude": "49.05798",
            "longitude": "-122.25257"
        },
        {
            "city": "Acton Vale",
            "region": "10",
            "country": "CA",
            "latitude": "45.65007",
            "longitude": "-72.56582"
        },
        {
            "city": "Airdrie",
            "region": "01",
            "country": "CA",
            "latitude": "51.30011",
            "longitude": "-114.03528"
        },
        {
            "city": "Albanel",
            "region": "10",
            "country": "CA",
            "latitude": "48.88324",
            "longitude": "-72.44867"
        },
        {
            "city": "Alberton",
            "region": "09",
            "country": "CA",
            "latitude": "46.81685",
            "longitude": "-64.06542"
        },
        {
            "city": "Alma",
            "region": "10",
            "country": "CA",
            "latitude": "48.55009",
            "longitude": "-71.6491"
        },
        {
            "city": "Altona",
            "region": "03",
            "country": "CA",
            "latitude": "49.10469",
            "longitude": "-97.55961"
        },
        {
            "city": "Amherst",
            "region": "07",
            "country": "CA",
            "latitude": "45.83345",
            "longitude": "-64.19874"
        },
        {
            "city": "Amherstburg",
            "region": "08",
            "country": "CA",
            "latitude": "42.11679",
            "longitude": "-83.04985"
        },
        {
            "city": "Amos",
            "region": "10",
            "country": "CA",
            "latitude": "48.56688",
            "longitude": "-78.11624"
        },
        {
            "city": "Angus",
            "region": "08",
            "country": "CA",
            "latitude": "44.31681",
            "longitude": "-79.88295"
        },
        {
            "city": "Antigonish",
            "region": "07",
            "country": "CA",
            "latitude": "45.61685",
            "longitude": "-61.99858"
        },
        {
            "city": "Armstrong",
            "region": "02",
            "country": "CA",
            "latitude": "50.44979",
            "longitude": "-119.20235"
        },
        {
            "city": "Arnprior",
            "region": "08",
            "country": "CA",
            "latitude": "45.43341",
            "longitude": "-76.34939"
        },
        {
            "city": "Asbestos",
            "region": "10",
            "country": "CA",
            "latitude": "45.76678",
            "longitude": "-71.9324"
        },
        {
            "city": "Ashcroft",
            "region": "02",
            "country": "CA",
            "latitude": "50.71646",
            "longitude": "-121.2859"
        },
        {
            "city": "Assiniboia",
            "region": "11",
            "country": "CA",
            "latitude": "49.63336",
            "longitude": "-105.98446"
        },
        {
            "city": "Athabasca",
            "region": "01",
            "country": "CA",
            "latitude": "54.71687",
            "longitude": "-113.28537"
        },
        {
            "city": "Atikokan",
            "region": "08",
            "country": "CA",
            "latitude": "48.75551",
            "longitude": "-91.6216"
        },
        {
            "city": "Aylmer",
            "region": "08",
            "country": "CA",
            "latitude": "42.76679",
            "longitude": "-80.98302"
        },
        {
            "city": "Baie-Comeau",
            "region": "10",
            "country": "CA",
            "latitude": "49.21679",
            "longitude": "-68.14894"
        },
        {
            "city": "Baie-D'Urf\u00e9",
            "region": "10",
            "country": "CA",
            "latitude": "45.41397",
            "longitude": "-73.91586"
        },
        {
            "city": "Bancroft",
            "region": "08",
            "country": "CA",
            "latitude": "45.05752",
            "longitude": "-77.85702"
        },
        {
            "city": "Banff",
            "region": "01",
            "country": "CA",
            "latitude": "51.17622",
            "longitude": "-115.56982"
        },
        {
            "city": "Barraute",
            "region": "10",
            "country": "CA",
            "latitude": "48.43349",
            "longitude": "-77.63279"
        },
        {
            "city": "Barrhead",
            "region": "01",
            "country": "CA",
            "latitude": "54.13345",
            "longitude": "-114.40211"
        },
        {
            "city": "Barrie",
            "region": "08",
            "country": "CA",
            "latitude": "44.40011",
            "longitude": "-79.66634"
        },
        {
            "city": "Bassano",
            "region": "01",
            "country": "CA",
            "latitude": "50.78342",
            "longitude": "-112.46854"
        },
        {
            "city": "Bay Roberts",
            "region": "05",
            "country": "CA",
            "latitude": "47.59989",
            "longitude": "-53.26478"
        },
        {
            "city": "Beaconsfield",
            "region": "10",
            "country": "CA",
            "latitude": "45.43341",
            "longitude": "-73.86586"
        },
        {
            "city": "Beauharnois",
            "region": "10",
            "country": "CA",
            "latitude": "45.31678",
            "longitude": "-73.8659"
        },
        {
            "city": "Beaumont",
            "region": "01",
            "country": "CA",
            "latitude": "53.35013",
            "longitude": "-113.41871"
        },
        {
            "city": "Beausejour",
            "region": "03",
            "country": "CA",
            "latitude": "50.0622",
            "longitude": "-96.51669"
        },
        {
            "city": "Beaverlodge",
            "region": "01",
            "country": "CA",
            "latitude": "55.21664",
            "longitude": "-119.43605"
        },
        {
            "city": "B\u00e9cancour",
            "region": "10",
            "country": "CA",
            "latitude": "46.33336",
            "longitude": "-72.43241"
        },
        {
            "city": "Bedford",
            "region": "10",
            "country": "CA",
            "latitude": "45.13338",
            "longitude": "-72.96584"
        },
        {
            "city": "Belleville",
            "region": "08",
            "country": "CA",
            "latitude": "44.17876",
            "longitude": "-77.37053"
        },
        {
            "city": "Bells Corners",
            "region": "08",
            "country": "CA",
            "latitude": "45.31588",
            "longitude": "-75.83012"
        },
        {
            "city": "Beloeil",
            "region": "10",
            "country": "CA",
            "latitude": "45.56678",
            "longitude": "-73.19915"
        },
        {
            "city": "Berthierville",
            "region": "10",
            "country": "CA",
            "latitude": "46.08336",
            "longitude": "-73.18245"
        },
        {
            "city": "Berwick",
            "region": "07",
            "country": "CA",
            "latitude": "45.05015",
            "longitude": "-64.73208"
        },
        {
            "city": "Biggar",
            "region": "11",
            "country": "CA",
            "latitude": "52.0668",
            "longitude": "-108.00135"
        },
        {
            "city": "Black Diamond",
            "region": "01",
            "country": "CA",
            "latitude": "50.70011",
            "longitude": "-114.2353"
        },
        {
            "city": "Blackfalds",
            "region": "01",
            "country": "CA",
            "latitude": "52.38342",
            "longitude": "-113.7853"
        },
        {
            "city": "Blainville",
            "region": "10",
            "country": "CA",
            "latitude": "45.66678",
            "longitude": "-73.88249"
        },
        {
            "city": "Boisbriand",
            "region": "10",
            "country": "CA",
            "latitude": "45.61678",
            "longitude": "-73.83249"
        },
        {
            "city": "Bois-des-Filion",
            "region": "10",
            "country": "CA",
            "latitude": "45.66678",
            "longitude": "-73.74918"
        },
        {
            "city": "Boissevain",
            "region": "03",
            "country": "CA",
            "latitude": "49.23062",
            "longitude": "-100.05586"
        },
        {
            "city": "Bon Accord",
            "region": "01",
            "country": "CA",
            "latitude": "53.83345",
            "longitude": "-113.41872"
        },
        {
            "city": "Bonavista",
            "region": "05",
            "country": "CA",
            "latitude": "48.64989",
            "longitude": "-53.11474"
        },
        {
            "city": "Bonnyville",
            "region": "01",
            "country": "CA",
            "latitude": "54.26684",
            "longitude": "-110.73505"
        },
        {
            "city": "Botwood",
            "region": "05",
            "country": "CA",
            "latitude": "49.14994",
            "longitude": "-55.34819"
        },
        {
            "city": "Boucherville",
            "region": "10",
            "country": "CA",
            "latitude": "45.59104",
            "longitude": "-73.43605"
        },
        {
            "city": "Bouctouche",
            "region": "04",
            "country": "CA",
            "latitude": "46.46844",
            "longitude": "-64.73905"
        },
        {
            "city": "Bourget",
            "region": "08",
            "country": "CA",
            "latitude": "45.4334",
            "longitude": "-75.1493"
        },
        {
            "city": "Bowen Island",
            "region": "02",
            "country": "CA",
            "latitude": "49.38295",
            "longitude": "-123.33596"
        },
        {
            "city": "Bow Island",
            "region": "01",
            "country": "CA",
            "latitude": "49.86676",
            "longitude": "-111.36843"
        },
        {
            "city": "Bracebridge",
            "region": "08",
            "country": "CA",
            "latitude": "45.03341",
            "longitude": "-79.31633"
        },
        {
            "city": "Bradford West Gwillimbury",
            "region": "08",
            "country": "CA",
            "latitude": "44.11681",
            "longitude": "-79.61633"
        },
        {
            "city": "Brampton",
            "region": "08",
            "country": "CA",
            "latitude": "43.68341",
            "longitude": "-79.76633"
        },
        {
            "city": "Brandon",
            "region": "03",
            "country": "CA",
            "latitude": "49.84692",
            "longitude": "-99.95306"
        },
        {
            "city": "Brant",
            "region": "08",
            "country": "CA",
            "latitude": "43.1334",
            "longitude": "-80.34967"
        },
        {
            "city": "Brantford",
            "region": "08",
            "country": "CA",
            "latitude": "43.1334",
            "longitude": "-80.26636"
        },
        {
            "city": "Bridgewater",
            "region": "07",
            "country": "CA",
            "latitude": "44.38345",
            "longitude": "-64.51546"
        },
        {
            "city": "Brockville",
            "region": "08",
            "country": "CA",
            "latitude": "44.58341",
            "longitude": "-75.68264"
        },
        {
            "city": "Bromont",
            "region": "10",
            "country": "CA",
            "latitude": "45.31678",
            "longitude": "-72.64912"
        },
        {
            "city": "Brooks",
            "region": "01",
            "country": "CA",
            "latitude": "50.58341",
            "longitude": "-111.88509"
        },
        {
            "city": "Brossard",
            "region": "10",
            "country": "CA",
            "latitude": "45.45008",
            "longitude": "-73.46583"
        },
        {
            "city": "Brownsburg-Chatham",
            "region": "10",
            "country": "CA",
            "latitude": "45.68342",
            "longitude": "-74.4159"
        },
        {
            "city": "Burgeo",
            "region": "05",
            "country": "CA",
            "latitude": "47.61668",
            "longitude": "-57.61516"
        },
        {
            "city": "Burlington",
            "region": "08",
            "country": "CA",
            "latitude": "43.38621",
            "longitude": "-79.83713"
        },
        {
            "city": "Burnaby",
            "region": "02",
            "country": "CA",
            "latitude": "49.26636",
            "longitude": "-122.95263"
        },
        {
            "city": "Burns Lake",
            "region": "02",
            "country": "CA",
            "latitude": "54.2331",
            "longitude": "-125.7533"
        },
        {
            "city": "Cache Creek",
            "region": "02",
            "country": "CA",
            "latitude": "50.81011",
            "longitude": "-121.3246"
        },
        {
            "city": "Calgary",
            "region": "01",
            "country": "CA",
            "latitude": "51.05011",
            "longitude": "-114.08529"
        },
        {
            "city": "Calmar",
            "region": "01",
            "country": "CA",
            "latitude": "53.26683",
            "longitude": "-113.81874"
        },
        {
            "city": "Cambridge",
            "region": "08",
            "country": "CA",
            "latitude": "43.3601",
            "longitude": "-80.31269"
        },
        {
            "city": "Campbell River",
            "region": "02",
            "country": "CA",
            "latitude": "50.01634",
            "longitude": "-125.24459"
        },
        {
            "city": "Camrose",
            "region": "01",
            "country": "CA",
            "latitude": "53.01684",
            "longitude": "-112.83525"
        },
        {
            "city": "Candiac",
            "region": "10",
            "country": "CA",
            "latitude": "45.38338",
            "longitude": "-73.51587"
        },
        {
            "city": "Canmore",
            "region": "01",
            "country": "CA",
            "latitude": "51.08335",
            "longitude": "-115.35206"
        },
        {
            "city": "Canora",
            "region": "11",
            "country": "CA",
            "latitude": "51.63328",
            "longitude": "-102.43425"
        },
        {
            "city": "Cap-Chat",
            "region": "10",
            "country": "CA",
            "latitude": "49.10009",
            "longitude": "-66.68212"
        },
        {
            "city": "Carberry",
            "region": "03",
            "country": "CA",
            "latitude": "49.86893",
            "longitude": "-99.36021"
        },
        {
            "city": "Carbonear",
            "region": "05",
            "country": "CA",
            "latitude": "47.73319",
            "longitude": "-53.21478"
        },
        {
            "city": "Cardston",
            "region": "01",
            "country": "CA",
            "latitude": "49.19998",
            "longitude": "-113.3019"
        },
        {
            "city": "Carignan",
            "region": "10",
            "country": "CA",
            "latitude": "45.45008",
            "longitude": "-73.29916"
        },
        {
            "city": "Carleton Place",
            "region": "08",
            "country": "CA",
            "latitude": "45.13341",
            "longitude": "-76.14938"
        },
        {
            "city": "Carlyle",
            "region": "11",
            "country": "CA",
            "latitude": "49.63334",
            "longitude": "-102.26765"
        },
        {
            "city": "Carman",
            "region": "03",
            "country": "CA",
            "latitude": "49.4992",
            "longitude": "-98.00156"
        },
        {
            "city": "Carstairs",
            "region": "01",
            "country": "CA",
            "latitude": "51.56681",
            "longitude": "-114.102"
        },
        {
            "city": "Casselman",
            "region": "08",
            "country": "CA",
            "latitude": "45.3168",
            "longitude": "-75.0826"
        },
        {
            "city": "Castlegar",
            "region": "02",
            "country": "CA",
            "latitude": "49.29984",
            "longitude": "-117.66894"
        },
        {
            "city": "Catalina",
            "region": "05",
            "country": "CA",
            "latitude": "48.51659",
            "longitude": "-53.08135"
        },
        {
            "city": "Chambly",
            "region": "10",
            "country": "CA",
            "latitude": "45.45008",
            "longitude": "-73.28246"
        },
        {
            "city": "Channel-Port aux Basques",
            "region": "05",
            "country": "CA",
            "latitude": "47.57021",
            "longitude": "-59.13674"
        },
        {
            "city": "Chapais",
            "region": "10",
            "country": "CA",
            "latitude": "49.78344",
            "longitude": "-74.84919"
        },
        {
            "city": "Charlemagne",
            "region": "10",
            "country": "CA",
            "latitude": "45.71678",
            "longitude": "-73.48247"
        },
        {
            "city": "Charlottetown",
            "region": "09",
            "country": "CA",
            "latitude": "46.23525",
            "longitude": "-63.12671"
        },
        {
            "city": "Chase",
            "region": "02",
            "country": "CA",
            "latitude": "50.8165",
            "longitude": "-119.68571"
        },
        {
            "city": "Ch\u00e2teauguay",
            "region": "10",
            "country": "CA",
            "latitude": "45.38338",
            "longitude": "-73.74919"
        },
        {
            "city": "Chatham-Kent",
            "region": "08",
            "country": "CA",
            "latitude": "42.40009",
            "longitude": "-82.1831"
        },
        {
            "city": "Chester",
            "region": "07",
            "country": "CA",
            "latitude": "44.55015",
            "longitude": "-64.24874"
        },
        {
            "city": "Chestermere",
            "region": "01",
            "country": "CA",
            "latitude": "51.03341",
            "longitude": "-113.81867"
        },
        {
            "city": "Chetwynd",
            "region": "02",
            "country": "CA",
            "latitude": "55.69988",
            "longitude": "-121.63627"
        },
        {
            "city": "Chibougamau",
            "region": "10",
            "country": "CA",
            "latitude": "49.91684",
            "longitude": "-74.36586"
        },
        {
            "city": "Chilliwack",
            "region": "02",
            "country": "CA",
            "latitude": "49.17468",
            "longitude": "-121.94427"
        },
        {
            "city": "Chute-aux-Outardes",
            "region": "10",
            "country": "CA",
            "latitude": "49.11679",
            "longitude": "-68.39896"
        },
        {
            "city": "Clarence-Rockland",
            "region": "08",
            "country": "CA",
            "latitude": "45.5501",
            "longitude": "-75.29101"
        },
        {
            "city": "Clarenville-Shoal Harbour",
            "region": "05",
            "country": "CA",
            "latitude": "48.1805",
            "longitude": "-53.96982"
        },
        {
            "city": "Claresholm",
            "region": "01",
            "country": "CA",
            "latitude": "50.03332",
            "longitude": "-113.58524"
        },
        {
            "city": "Clyde River",
            "region": "14",
            "country": "CA",
            "latitude": "70.46916",
            "longitude": "-68.59143"
        },
        {
            "city": "Coaldale",
            "region": "01",
            "country": "CA",
            "latitude": "49.7167",
            "longitude": "-112.61854"
        },
        {
            "city": "Coalhurst",
            "region": "01",
            "country": "CA",
            "latitude": "49.7464",
            "longitude": "-112.93246"
        },
        {
            "city": "Coaticook",
            "region": "10",
            "country": "CA",
            "latitude": "45.13339",
            "longitude": "-71.79907"
        },
        {
            "city": "Cobourg",
            "region": "08",
            "country": "CA",
            "latitude": "43.95977",
            "longitude": "-78.16515"
        },
        {
            "city": "Cochrane",
            "region": "01",
            "country": "CA",
            "latitude": "51.18341",
            "longitude": "-114.46871"
        },
        {
            "city": "Cold Lake",
            "region": "01",
            "country": "CA",
            "latitude": "54.45018",
            "longitude": "-110.2017"
        },
        {
            "city": "Collingwood",
            "region": "08",
            "country": "CA",
            "latitude": "44.4834",
            "longitude": "-80.21638"
        },
        {
            "city": "Colwood",
            "region": "02",
            "country": "CA",
            "latitude": "48.43293",
            "longitude": "-123.48591"
        },
        {
            "city": "Conception Bay South",
            "region": "05",
            "country": "CA",
            "latitude": "47.49989",
            "longitude": "-52.99806"
        },
        {
            "city": "Contrecoeur",
            "region": "10",
            "country": "CA",
            "latitude": "45.85008",
            "longitude": "-73.23245"
        },
        {
            "city": "Cookshire-Eaton",
            "region": "10",
            "country": "CA",
            "latitude": "45.41675",
            "longitude": "-71.6324"
        },
        {
            "city": "Coquitlam",
            "region": "02",
            "country": "CA",
            "latitude": "49.28297",
            "longitude": "-122.75262"
        },
        {
            "city": "Corner Brook",
            "region": "05",
            "country": "CA",
            "latitude": "48.96671",
            "longitude": "-57.9484"
        },
        {
            "city": "Cornwall",
            "region": "09",
            "country": "CA",
            "latitude": "46.22652",
            "longitude": "-63.21809"
        },
        {
            "city": "Cornwall",
            "region": "08",
            "country": "CA",
            "latitude": "45.01809",
            "longitude": "-74.72815"
        },
        {
            "city": "C\u00f4te-Saint-Luc",
            "region": "10",
            "country": "CA",
            "latitude": "45.46536",
            "longitude": "-73.66585"
        },
        {
            "city": "Courtenay",
            "region": "02",
            "country": "CA",
            "latitude": "49.68657",
            "longitude": "-124.9936"
        },
        {
            "city": "Cowansville",
            "region": "10",
            "country": "CA",
            "latitude": "45.20008",
            "longitude": "-72.74913"
        },
        {
            "city": "Crabtree",
            "region": "10",
            "country": "CA",
            "latitude": "45.96677",
            "longitude": "-73.46586"
        },
        {
            "city": "Cranbrook",
            "region": "02",
            "country": "CA",
            "latitude": "49.49991",
            "longitude": "-115.76879"
        },
        {
            "city": "Creston",
            "region": "02",
            "country": "CA",
            "latitude": "49.09987",
            "longitude": "-116.50211"
        },
        {
            "city": "Crossfield",
            "region": "01",
            "country": "CA",
            "latitude": "51.43341",
            "longitude": "-114.03528"
        },
        {
            "city": "Cumberland",
            "region": "02",
            "country": "CA",
            "latitude": "49.61634",
            "longitude": "-125.03613"
        },
        {
            "city": "Dalmeny",
            "region": "11",
            "country": "CA",
            "latitude": "52.33339",
            "longitude": "-106.76792"
        },
        {
            "city": "Danville",
            "region": "10",
            "country": "CA",
            "latitude": "45.78337",
            "longitude": "-72.0158"
        },
        {
            "city": "Dartmouth",
            "region": "07",
            "country": "CA",
            "latitude": "44.67134",
            "longitude": "-63.57719"
        },
        {
            "city": "Dauphin",
            "region": "03",
            "country": "CA",
            "latitude": "51.14941",
            "longitude": "-100.05023"
        },
        {
            "city": "Daveluyville",
            "region": "10",
            "country": "CA",
            "latitude": "46.20006",
            "longitude": "-72.13239"
        },
        {
            "city": "Dawson Creek",
            "region": "02",
            "country": "CA",
            "latitude": "55.7666",
            "longitude": "-120.23616"
        },
        {
            "city": "Deep River",
            "region": "08",
            "country": "CA",
            "latitude": "46.10012",
            "longitude": "-77.49949"
        },
        {
            "city": "Deer Lake",
            "region": "05",
            "country": "CA",
            "latitude": "49.16671",
            "longitude": "-57.43163"
        },
        {
            "city": "Deloraine",
            "region": "03",
            "country": "CA",
            "latitude": "49.19082",
            "longitude": "-100.49477"
        },
        {
            "city": "Delson",
            "region": "10",
            "country": "CA",
            "latitude": "45.36678",
            "longitude": "-73.54917"
        },
        {
            "city": "Delta",
            "region": "02",
            "country": "CA",
            "latitude": "49.14399",
            "longitude": "-122.9068"
        },
        {
            "city": "Deseronto",
            "region": "08",
            "country": "CA",
            "latitude": "44.20012",
            "longitude": "-77.04944"
        },
        {
            "city": "Deux-Montagnes",
            "region": "10",
            "country": "CA",
            "latitude": "45.53455",
            "longitude": "-73.90168"
        },
        {
            "city": "Devon",
            "region": "01",
            "country": "CA",
            "latitude": "53.36683",
            "longitude": "-113.73533"
        },
        {
            "city": "Didsbury",
            "region": "01",
            "country": "CA",
            "latitude": "51.66681",
            "longitude": "-114.13529"
        },
        {
            "city": "Dieppe",
            "region": "04",
            "country": "CA",
            "latitude": "46.07844",
            "longitude": "-64.68735"
        },
        {
            "city": "Digby",
            "region": "07",
            "country": "CA",
            "latitude": "44.61685",
            "longitude": "-65.76555"
        },
        {
            "city": "Dolbeau-Mistassini",
            "region": "10",
            "country": "CA",
            "latitude": "48.87634",
            "longitude": "-72.21202"
        },
        {
            "city": "Dollard-Des Ormeaux",
            "region": "10",
            "country": "CA",
            "latitude": "45.49452",
            "longitude": "-73.82419"
        },
        {
            "city": "Dorval",
            "region": "10",
            "country": "CA",
            "latitude": "45.4473",
            "longitude": "-73.75335"
        },
        {
            "city": "Drayton Valley",
            "region": "01",
            "country": "CA",
            "latitude": "53.21682",
            "longitude": "-114.98544"
        },
        {
            "city": "Drummondville",
            "region": "10",
            "country": "CA",
            "latitude": "45.88336",
            "longitude": "-72.48241"
        },
        {
            "city": "Dryden",
            "region": "08",
            "country": "CA",
            "latitude": "49.78334",
            "longitude": "-92.75032"
        },
        {
            "city": "Duncan",
            "region": "02",
            "country": "CA",
            "latitude": "48.78293",
            "longitude": "-123.70266"
        },
        {
            "city": "East Angus",
            "region": "10",
            "country": "CA",
            "latitude": "45.48338",
            "longitude": "-71.66577"
        },
        {
            "city": "Edmonton",
            "region": "01",
            "country": "CA",
            "latitude": "53.55014",
            "longitude": "-113.46871"
        },
        {
            "city": "Edson",
            "region": "01",
            "country": "CA",
            "latitude": "53.58345",
            "longitude": "-116.43559"
        },
        {
            "city": "Elkford",
            "region": "02",
            "country": "CA",
            "latitude": "50.05007",
            "longitude": "-114.8854"
        },
        {
            "city": "Elk Point",
            "region": "01",
            "country": "CA",
            "latitude": "53.90017",
            "longitude": "-110.9017"
        },
        {
            "city": "Elliot Lake",
            "region": "08",
            "country": "CA",
            "latitude": "46.38336",
            "longitude": "-82.63315"
        },
        {
            "city": "Enderby",
            "region": "02",
            "country": "CA",
            "latitude": "50.5498",
            "longitude": "-119.15234"
        },
        {
            "city": "Englehart",
            "region": "08",
            "country": "CA",
            "latitude": "47.81686",
            "longitude": "-79.8664"
        },
        {
            "city": "Espanola",
            "region": "08",
            "country": "CA",
            "latitude": "46.25837",
            "longitude": "-81.76649"
        },
        {
            "city": "Esterhazy",
            "region": "11",
            "country": "CA",
            "latitude": "50.65001",
            "longitude": "-102.08426"
        },
        {
            "city": "Estevan",
            "region": "11",
            "country": "CA",
            "latitude": "49.13337",
            "longitude": "-102.98422"
        },
        {
            "city": "Fairview",
            "region": "01",
            "country": "CA",
            "latitude": "56.06675",
            "longitude": "-118.38606"
        },
        {
            "city": "Falher",
            "region": "01",
            "country": "CA",
            "latitude": "55.73339",
            "longitude": "-117.20262"
        },
        {
            "city": "Farnham",
            "region": "10",
            "country": "CA",
            "latitude": "45.28338",
            "longitude": "-72.98244"
        },
        {
            "city": "Ferme-Neuve",
            "region": "10",
            "country": "CA",
            "latitude": "46.70011",
            "longitude": "-75.44929"
        },
        {
            "city": "Fermont",
            "region": "10",
            "country": "CA",
            "latitude": "52.78345",
            "longitude": "-67.08204"
        },
        {
            "city": "Fernie",
            "region": "02",
            "country": "CA",
            "latitude": "49.49996",
            "longitude": "-115.06871"
        },
        {
            "city": "Flin Flon",
            "region": "03",
            "country": "CA",
            "latitude": "54.76824",
            "longitude": "-101.86497"
        },
        {
            "city": "Foam Lake",
            "region": "11",
            "country": "CA",
            "latitude": "51.65001",
            "longitude": "-103.53431"
        },
        {
            "city": "Fort-Coulonge",
            "region": "10",
            "country": "CA",
            "latitude": "45.85011",
            "longitude": "-76.73272"
        },
        {
            "city": "Fort Erie",
            "region": "08",
            "country": "CA",
            "latitude": "42.90012",
            "longitude": "-78.93286"
        },
        {
            "city": "Fort Frances",
            "region": "08",
            "country": "CA",
            "latitude": "48.59988",
            "longitude": "-93.4003"
        },
        {
            "city": "Fort Macleod",
            "region": "01",
            "country": "CA",
            "latitude": "49.71671",
            "longitude": "-113.41857"
        },
        {
            "city": "Fort McPherson",
            "region": "13",
            "country": "CA",
            "latitude": "67.43863",
            "longitude": "-134.88543"
        },
        {
            "city": "Fort Nelson",
            "region": "02",
            "country": "CA",
            "latitude": "58.80533",
            "longitude": "-122.7002"
        },
        {
            "city": "Fort Saskatchewan",
            "region": "01",
            "country": "CA",
            "latitude": "53.71684",
            "longitude": "-113.2187"
        },
        {
            "city": "Fort St. John",
            "region": "02",
            "country": "CA",
            "latitude": "56.24988",
            "longitude": "-120.85292"
        },
        {
            "city": "Fox Creek",
            "region": "01",
            "country": "CA",
            "latitude": "54.40007",
            "longitude": "-116.80238"
        },
        {
            "city": "Fredericton",
            "region": "04",
            "country": "CA",
            "latitude": "45.94541",
            "longitude": "-66.66558"
        },
        {
            "city": "Fruitvale",
            "region": "02",
            "country": "CA",
            "latitude": "49.11654",
            "longitude": "-117.55222"
        },
        {
            "city": "Gambo",
            "region": "05",
            "country": "CA",
            "latitude": "48.7832",
            "longitude": "-54.21482"
        },
        {
            "city": "Gananoque",
            "region": "08",
            "country": "CA",
            "latitude": "44.33342",
            "longitude": "-76.16607"
        },
        {
            "city": "Gasp\u00e9",
            "region": "10",
            "country": "CA",
            "latitude": "48.83341",
            "longitude": "-64.48194"
        },
        {
            "city": "Gatineau",
            "region": "10",
            "country": "CA",
            "latitude": "45.47723",
            "longitude": "-75.70164"
        },
        {
            "city": "Gibbons",
            "region": "01",
            "country": "CA",
            "latitude": "53.83345",
            "longitude": "-113.33531"
        },
        {
            "city": "Gibsons",
            "region": "02",
            "country": "CA",
            "latitude": "49.39965",
            "longitude": "-123.50268"
        },
        {
            "city": "Gimli",
            "region": "03",
            "country": "CA",
            "latitude": "50.63362",
            "longitude": "-96.99066"
        },
        {
            "city": "Gjoa Haven",
            "region": "14",
            "country": "CA",
            "latitude": "68.62602",
            "longitude": "-95.87836"
        },
        {
            "city": "Glace Bay",
            "region": "07",
            "country": "CA",
            "latitude": "46.19695",
            "longitude": "-59.95698"
        },
        {
            "city": "Goderich",
            "region": "08",
            "country": "CA",
            "latitude": "43.75008",
            "longitude": "-81.71648"
        },
        {
            "city": "Golden",
            "region": "02",
            "country": "CA",
            "latitude": "51.29995",
            "longitude": "-116.9689"
        },
        {
            "city": "Granby",
            "region": "10",
            "country": "CA",
            "latitude": "45.40008",
            "longitude": "-72.73243"
        },
        {
            "city": "Grand Bank",
            "region": "05",
            "country": "CA",
            "latitude": "47.09995",
            "longitude": "-55.76504"
        },
        {
            "city": "Grande Cache",
            "region": "01",
            "country": "CA",
            "latitude": "53.88335",
            "longitude": "-119.13585"
        },
        {
            "city": "Grande Prairie",
            "region": "01",
            "country": "CA",
            "latitude": "55.16667",
            "longitude": "-118.80271"
        },
        {
            "city": "Grand Falls-Windsor",
            "region": "05",
            "country": "CA",
            "latitude": "48.93324",
            "longitude": "-55.66492"
        },
        {
            "city": "Grand Forks",
            "region": "02",
            "country": "CA",
            "latitude": "49.03309",
            "longitude": "-118.4356"
        },
        {
            "city": "Greater Sudbury",
            "region": "08",
            "country": "CA",
            "latitude": "46.49",
            "longitude": "-80.99001"
        },
        {
            "city": "Gravelbourg",
            "region": "11",
            "country": "CA",
            "latitude": "49.88336",
            "longitude": "-106.55122"
        },
        {
            "city": "Gravenhurst",
            "region": "08",
            "country": "CA",
            "latitude": "44.91681",
            "longitude": "-79.36633"
        },
        {
            "city": "Greater Napanee",
            "region": "08",
            "country": "CA",
            "latitude": "44.25012",
            "longitude": "-76.94944"
        },
        {
            "city": "Greenwood",
            "region": "07",
            "country": "CA",
            "latitude": "44.98345",
            "longitude": "-64.89879"
        },
        {
            "city": "Grimshaw",
            "region": "01",
            "country": "CA",
            "latitude": "56.18339",
            "longitude": "-117.6027"
        },
        {
            "city": "Guelph",
            "region": "08",
            "country": "CA",
            "latitude": "43.5501",
            "longitude": "-80.24967"
        },
        {
            "city": "Haines Junction",
            "region": "12",
            "country": "CA",
            "latitude": "60.75216",
            "longitude": "-137.51082"
        },
        {
            "city": "Haldimand County",
            "region": "08",
            "country": "CA",
            "latitude": "42.98341",
            "longitude": "-79.86633"
        },
        {
            "city": "Hamilton",
            "region": "08",
            "country": "CA",
            "latitude": "43.23341",
            "longitude": "-79.94964"
        },
        {
            "city": "Hampstead",
            "region": "10",
            "country": "CA",
            "latitude": "45.48064",
            "longitude": "-73.66307"
        },
        {
            "city": "Hampton",
            "region": "04",
            "country": "CA",
            "latitude": "45.52876",
            "longitude": "-65.85354"
        },
        {
            "city": "Hanna",
            "region": "01",
            "country": "CA",
            "latitude": "51.63343",
            "longitude": "-111.90181"
        },
        {
            "city": "Hanover",
            "region": "08",
            "country": "CA",
            "latitude": "44.15009",
            "longitude": "-81.03303"
        },
        {
            "city": "Hantsport",
            "region": "07",
            "country": "CA",
            "latitude": "45.06685",
            "longitude": "-64.16544"
        },
        {
            "city": "Happy Valley-Goose Bay",
            "region": "05",
            "country": "CA",
            "latitude": "53.31685",
            "longitude": "-60.33153"
        },
        {
            "city": "Harbour Breton",
            "region": "05",
            "country": "CA",
            "latitude": "47.48325",
            "longitude": "-55.79833"
        },
        {
            "city": "Havre-Saint-Pierre",
            "region": "10",
            "country": "CA",
            "latitude": "50.23344",
            "longitude": "-63.59862"
        },
        {
            "city": "Hawkesbury",
            "region": "08",
            "country": "CA",
            "latitude": "45.60009",
            "longitude": "-74.61595"
        },
        {
            "city": "Hearst",
            "region": "08",
            "country": "CA",
            "latitude": "49.68351",
            "longitude": "-83.66654"
        },
        {
            "city": "High Level",
            "region": "01",
            "country": "CA",
            "latitude": "58.51688",
            "longitude": "-117.13605"
        },
        {
            "city": "High Prairie",
            "region": "01",
            "country": "CA",
            "latitude": "55.4334",
            "longitude": "-116.4858"
        },
        {
            "city": "High River",
            "region": "01",
            "country": "CA",
            "latitude": "50.58341",
            "longitude": "-113.86867"
        },
        {
            "city": "Hinton",
            "region": "01",
            "country": "CA",
            "latitude": "53.40009",
            "longitude": "-117.58567"
        },
        {
            "city": "Hope",
            "region": "02",
            "country": "CA",
            "latitude": "49.38299",
            "longitude": "-121.44144"
        },
        {
            "city": "Houston",
            "region": "02",
            "country": "CA",
            "latitude": "54.39976",
            "longitude": "-126.67008"
        },
        {
            "city": "Hudson",
            "region": "10",
            "country": "CA",
            "latitude": "45.45008",
            "longitude": "-74.14922"
        },
        {
            "city": "Hudson Bay",
            "region": "11",
            "country": "CA",
            "latitude": "52.85003",
            "longitude": "-102.38425"
        },
        {
            "city": "Humboldt",
            "region": "11",
            "country": "CA",
            "latitude": "52.20005",
            "longitude": "-105.1255"
        },
        {
            "city": "Huntingdon",
            "region": "10",
            "country": "CA",
            "latitude": "45.08339",
            "longitude": "-74.16593"
        },
        {
            "city": "Huntsville",
            "region": "08",
            "country": "CA",
            "latitude": "45.33341",
            "longitude": "-79.21632"
        },
        {
            "city": "Indian Head",
            "region": "11",
            "country": "CA",
            "latitude": "50.53336",
            "longitude": "-103.66775"
        },
        {
            "city": "Ingersoll",
            "region": "08",
            "country": "CA",
            "latitude": "43.03339",
            "longitude": "-80.88302"
        },
        {
            "city": "Innisfil",
            "region": "08",
            "country": "CA",
            "latitude": "44.30011",
            "longitude": "-79.64964"
        },
        {
            "city": "Inuvik",
            "region": "13",
            "country": "CA",
            "latitude": "68.34986",
            "longitude": "-133.72181"
        },
        {
            "city": "Invermere",
            "region": "02",
            "country": "CA",
            "latitude": "50.51666",
            "longitude": "-116.03538"
        },
        {
            "city": "Iqaluit",
            "region": "14",
            "country": "CA",
            "latitude": "63.75059",
            "longitude": "-68.51449"
        },
        {
            "city": "Iroquois Falls",
            "region": "08",
            "country": "CA",
            "latitude": "48.76688",
            "longitude": "-80.68307"
        },
        {
            "city": "Irricana",
            "region": "01",
            "country": "CA",
            "latitude": "51.32372",
            "longitude": "-113.60475"
        },
        {
            "city": "Jasper Park Lodge",
            "region": "01",
            "country": "CA",
            "latitude": "52.88576",
            "longitude": "-118.05715"
        },
        {
            "city": "Joliette",
            "region": "10",
            "country": "CA",
            "latitude": "46.01677",
            "longitude": "-73.44915"
        },
        {
            "city": "Kamloops",
            "region": "02",
            "country": "CA",
            "latitude": "50.66648",
            "longitude": "-120.3192"
        },
        {
            "city": "Kamsack",
            "region": "11",
            "country": "CA",
            "latitude": "51.56668",
            "longitude": "-101.90093"
        },
        {
            "city": "Kapuskasing",
            "region": "08",
            "country": "CA",
            "latitude": "49.41694",
            "longitude": "-82.43308"
        },
        {
            "city": "Kawartha Lakes",
            "region": "08",
            "country": "CA",
            "latitude": "44.58342",
            "longitude": "-78.83288"
        },
        {
            "city": "Kelowna",
            "region": "02",
            "country": "CA",
            "latitude": "49.88307",
            "longitude": "-119.48568"
        },
        {
            "city": "Kenora",
            "region": "08",
            "country": "CA",
            "latitude": "49.81671",
            "longitude": "-94.43373"
        },
        {
            "city": "Kensington",
            "region": "09",
            "country": "CA",
            "latitude": "46.43343",
            "longitude": "-63.64871"
        },
        {
            "city": "Kentville",
            "region": "07",
            "country": "CA",
            "latitude": "45.08345",
            "longitude": "-64.49876"
        },
        {
            "city": "Kerrobert",
            "region": "11",
            "country": "CA",
            "latitude": "51.91682",
            "longitude": "-109.13479"
        },
        {
            "city": "Keswick",
            "region": "08",
            "country": "CA",
            "latitude": "44.25011",
            "longitude": "-79.46632"
        },
        {
            "city": "Killam",
            "region": "01",
            "country": "CA",
            "latitude": "52.78344",
            "longitude": "-111.85175"
        },
        {
            "city": "Killarney",
            "region": "03",
            "country": "CA",
            "latitude": "49.18332",
            "longitude": "-99.66364"
        },
        {
            "city": "Kimberley",
            "region": "02",
            "country": "CA",
            "latitude": "49.68325",
            "longitude": "-115.9855"
        },
        {
            "city": "Kindersley",
            "region": "11",
            "country": "CA",
            "latitude": "51.46681",
            "longitude": "-109.16818"
        },
        {
            "city": "Kingsey Falls",
            "region": "10",
            "country": "CA",
            "latitude": "45.85007",
            "longitude": "-72.0658"
        },
        {
            "city": "Kingston",
            "region": "08",
            "country": "CA",
            "latitude": "44.22976",
            "longitude": "-76.48098"
        },
        {
            "city": "Kirkland",
            "region": "10",
            "country": "CA",
            "latitude": "45.45008",
            "longitude": "-73.86586"
        },
        {
            "city": "Kirkland Lake",
            "region": "08",
            "country": "CA",
            "latitude": "48.15017",
            "longitude": "-80.03301"
        },
        {
            "city": "Kitchener",
            "region": "08",
            "country": "CA",
            "latitude": "43.42537",
            "longitude": "-80.5112"
        },
        {
            "city": "Kitimat",
            "region": "02",
            "country": "CA",
            "latitude": "54.05244",
            "longitude": "-128.65342"
        },
        {
            "city": "Kugluktuk",
            "region": "14",
            "country": "CA",
            "latitude": "67.82743",
            "longitude": "-115.09649"
        },
        {
            "city": "Labelle",
            "region": "10",
            "country": "CA",
            "latitude": "46.28339",
            "longitude": "-74.73255"
        },
        {
            "city": "Labrador City",
            "region": "05",
            "country": "CA",
            "latitude": "52.94626",
            "longitude": "-66.91137"
        },
        {
            "city": "Lac-Brome",
            "region": "10",
            "country": "CA",
            "latitude": "45.21678",
            "longitude": "-72.51581"
        },
        {
            "city": "Lac du Bonnet",
            "region": "03",
            "country": "CA",
            "latitude": "50.2536",
            "longitude": "-96.06116"
        },
        {
            "city": "Lachute",
            "region": "10",
            "country": "CA",
            "latitude": "45.65008",
            "longitude": "-74.33253"
        },
        {
            "city": "Lac La Biche",
            "region": "01",
            "country": "CA",
            "latitude": "54.7669",
            "longitude": "-111.96861"
        },
        {
            "city": "Lac-M\u00e9gantic",
            "region": "10",
            "country": "CA",
            "latitude": "45.58338",
            "longitude": "-70.88234"
        },
        {
            "city": "Lacolle",
            "region": "10",
            "country": "CA",
            "latitude": "45.08338",
            "longitude": "-73.36585"
        },
        {
            "city": "Lacombe",
            "region": "01",
            "country": "CA",
            "latitude": "52.46681",
            "longitude": "-113.7353"
        },
        {
            "city": "Ladysmith",
            "region": "02",
            "country": "CA",
            "latitude": "48.98292",
            "longitude": "-123.81938"
        },
        {
            "city": "Lake Cowichan",
            "region": "02",
            "country": "CA",
            "latitude": "48.81633",
            "longitude": "-124.05268"
        },
        {
            "city": "Lamont",
            "region": "01",
            "country": "CA",
            "latitude": "53.76686",
            "longitude": "-112.80195"
        },
        {
            "city": "Langenburg",
            "region": "11",
            "country": "CA",
            "latitude": "50.84999",
            "longitude": "-101.71763"
        },
        {
            "city": "Langford",
            "region": "02",
            "country": "CA",
            "latitude": "48.44963",
            "longitude": "-123.50261"
        },
        {
            "city": "Langham",
            "region": "11",
            "country": "CA",
            "latitude": "52.3668",
            "longitude": "-106.96793"
        },
        {
            "city": "Langley",
            "region": "02",
            "country": "CA",
            "latitude": "49.09967",
            "longitude": "-122.6526"
        },
        {
            "city": "Langley",
            "region": "02",
            "country": "CA",
            "latitude": "49.08297",
            "longitude": "-122.58589"
        },
        {
            "city": "Lanigan",
            "region": "11",
            "country": "CA",
            "latitude": "51.85006",
            "longitude": "-105.03443"
        },
        {
            "city": "La Prairie",
            "region": "10",
            "country": "CA",
            "latitude": "45.41678",
            "longitude": "-73.49917"
        },
        {
            "city": "La Ronge",
            "region": "11",
            "country": "CA",
            "latitude": "55.10013",
            "longitude": "-105.28422"
        },
        {
            "city": "La Sarre",
            "region": "10",
            "country": "CA",
            "latitude": "48.80019",
            "longitude": "-79.19964"
        },
        {
            "city": "L'Assomption",
            "region": "10",
            "country": "CA",
            "latitude": "45.82318",
            "longitude": "-73.4294"
        },
        {
            "city": "La Tuque",
            "region": "10",
            "country": "CA",
            "latitude": "47.43337",
            "longitude": "-72.7824"
        },
        {
            "city": "Laval",
            "region": "10",
            "country": "CA",
            "latitude": "45.56995",
            "longitude": "-73.692"
        },
        {
            "city": "Lavaltrie",
            "region": "10",
            "country": "CA",
            "latitude": "45.88338",
            "longitude": "-73.28245"
        },
        {
            "city": "Leamington",
            "region": "08",
            "country": "CA",
            "latitude": "42.0549",
            "longitude": "-82.6062"
        },
        {
            "city": "Lebel-sur-Qu\u00e9villon",
            "region": "10",
            "country": "CA",
            "latitude": "49.05018",
            "longitude": "-76.98273"
        },
        {
            "city": "Leduc",
            "region": "01",
            "country": "CA",
            "latitude": "53.26682",
            "longitude": "-113.55201"
        },
        {
            "city": "L'\u00c9piphanie",
            "region": "10",
            "country": "CA",
            "latitude": "45.85008",
            "longitude": "-73.48246"
        },
        {
            "city": "Les C\u00e8dres",
            "region": "10",
            "country": "CA",
            "latitude": "45.30008",
            "longitude": "-74.04922"
        },
        {
            "city": "Les Coteaux",
            "region": "10",
            "country": "CA",
            "latitude": "45.28338",
            "longitude": "-74.23254"
        },
        {
            "city": "Lethbridge",
            "region": "01",
            "country": "CA",
            "latitude": "49.69999",
            "longitude": "-112.81856"
        },
        {
            "city": "Lewisporte",
            "region": "05",
            "country": "CA",
            "latitude": "49.24993",
            "longitude": "-55.04816"
        },
        {
            "city": "L'\u00cele-Perrot",
            "region": "10",
            "country": "CA",
            "latitude": "45.38338",
            "longitude": "-73.9492"
        },
        {
            "city": "Lions Bay",
            "region": "02",
            "country": "CA",
            "latitude": "49.44966",
            "longitude": "-123.23596"
        },
        {
            "city": "Lloydminster",
            "region": "11",
            "country": "CA",
            "latitude": "53.28346",
            "longitude": "-110.00157"
        },
        {
            "city": "Logan Lake",
            "region": "02",
            "country": "CA",
            "latitude": "50.49976",
            "longitude": "-120.80253"
        },
        {
            "city": "London",
            "region": "08",
            "country": "CA",
            "latitude": "42.98339",
            "longitude": "-81.23304"
        },
        {
            "city": "Longueuil",
            "region": "10",
            "country": "CA",
            "latitude": "45.53121",
            "longitude": "-73.51806"
        },
        {
            "city": "Lorraine",
            "region": "10",
            "country": "CA",
            "latitude": "45.68338",
            "longitude": "-73.78249"
        },
        {
            "city": "Louiseville",
            "region": "10",
            "country": "CA",
            "latitude": "46.25594",
            "longitude": "-72.94145"
        },
        {
            "city": "Lumby",
            "region": "02",
            "country": "CA",
            "latitude": "50.24979",
            "longitude": "-118.96904"
        },
        {
            "city": "Lumsden",
            "region": "11",
            "country": "CA",
            "latitude": "50.65009",
            "longitude": "-104.86783"
        },
        {
            "city": "Lunenburg",
            "region": "07",
            "country": "CA",
            "latitude": "44.38345",
            "longitude": "-64.31545"
        },
        {
            "city": "Macamic",
            "region": "10",
            "country": "CA",
            "latitude": "48.75018",
            "longitude": "-78.99962"
        },
        {
            "city": "Macklin",
            "region": "11",
            "country": "CA",
            "latitude": "52.33344",
            "longitude": "-109.93484"
        },
        {
            "city": "Magog",
            "region": "10",
            "country": "CA",
            "latitude": "45.26678",
            "longitude": "-72.14909"
        },
        {
            "city": "Magrath",
            "region": "01",
            "country": "CA",
            "latitude": "49.41668",
            "longitude": "-112.86856"
        },
        {
            "city": "Malartic",
            "region": "10",
            "country": "CA",
            "latitude": "48.13348",
            "longitude": "-78.13283"
        },
        {
            "city": "Maniwaki",
            "region": "10",
            "country": "CA",
            "latitude": "46.38341",
            "longitude": "-75.96605"
        },
        {
            "city": "Manning",
            "region": "01",
            "country": "CA",
            "latitude": "56.91683",
            "longitude": "-117.61945"
        },
        {
            "city": "Maple Creek",
            "region": "11",
            "country": "CA",
            "latitude": "49.91678",
            "longitude": "-109.48481"
        },
        {
            "city": "Maple Ridge",
            "region": "02",
            "country": "CA",
            "latitude": "49.21939",
            "longitude": "-122.60193"
        },
        {
            "city": "Marathon",
            "region": "08",
            "country": "CA",
            "latitude": "48.7501",
            "longitude": "-86.43322"
        },
        {
            "city": "Marieville",
            "region": "10",
            "country": "CA",
            "latitude": "45.43338",
            "longitude": "-73.16585"
        },
        {
            "city": "Martensville",
            "region": "11",
            "country": "CA",
            "latitude": "52.28339",
            "longitude": "-106.66792"
        },
        {
            "city": "Marystown",
            "region": "05",
            "country": "CA",
            "latitude": "47.16663",
            "longitude": "-55.14829"
        },
        {
            "city": "Mascouche",
            "region": "10",
            "country": "CA",
            "latitude": "45.74965",
            "longitude": "-73.59956"
        },
        {
            "city": "Maskinong\u00e9",
            "region": "10",
            "country": "CA",
            "latitude": "46.2286",
            "longitude": "-73.01917"
        },
        {
            "city": "Matagami",
            "region": "10",
            "country": "CA",
            "latitude": "49.75018",
            "longitude": "-77.63277"
        },
        {
            "city": "Mattawa",
            "region": "08",
            "country": "CA",
            "latitude": "46.31681",
            "longitude": "-78.69957"
        },
        {
            "city": "Mayerthorpe",
            "region": "01",
            "country": "CA",
            "latitude": "53.95015",
            "longitude": "-115.13547"
        },
        {
            "city": "Meadow Lake",
            "region": "11",
            "country": "CA",
            "latitude": "54.13348",
            "longitude": "-108.43471"
        },
        {
            "city": "Medicine Hat",
            "region": "01",
            "country": "CA",
            "latitude": "50.05006",
            "longitude": "-110.66834"
        },
        {
            "city": "Melfort",
            "region": "11",
            "country": "CA",
            "latitude": "52.86673",
            "longitude": "-104.61768"
        },
        {
            "city": "Melita",
            "region": "03",
            "country": "CA",
            "latitude": "49.26811",
            "longitude": "-100.99669"
        },
        {
            "city": "Melville",
            "region": "11",
            "country": "CA",
            "latitude": "50.91671",
            "longitude": "-102.80099"
        },
        {
            "city": "Mercier",
            "region": "10",
            "country": "CA",
            "latitude": "45.31678",
            "longitude": "-73.74919"
        },
        {
            "city": "Merritt",
            "region": "02",
            "country": "CA",
            "latitude": "50.11225",
            "longitude": "-120.7942"
        },
        {
            "city": "Middleton",
            "region": "07",
            "country": "CA",
            "latitude": "44.95015",
            "longitude": "-65.0655"
        },
        {
            "city": "Midland",
            "region": "08",
            "country": "CA",
            "latitude": "44.7501",
            "longitude": "-79.88296"
        },
        {
            "city": "Millet",
            "region": "01",
            "country": "CA",
            "latitude": "53.10013",
            "longitude": "-113.4687"
        },
        {
            "city": "Minnedosa",
            "region": "03",
            "country": "CA",
            "latitude": "50.24532",
            "longitude": "-99.84364"
        },
        {
            "city": "Mirabel",
            "region": "10",
            "country": "CA",
            "latitude": "45.65008",
            "longitude": "-74.08251"
        },
        {
            "city": "Miramichi",
            "region": "04",
            "country": "CA",
            "latitude": "47.00431",
            "longitude": "-65.46544"
        },
        {
            "city": "Mission",
            "region": "02",
            "country": "CA",
            "latitude": "49.13377",
            "longitude": "-122.3144"
        },
        {
            "city": "Mississauga",
            "region": "08",
            "country": "CA",
            "latitude": "43.5789",
            "longitude": "-79.6583"
        },
        {
            "city": "Moncton",
            "region": "04",
            "country": "CA",
            "latitude": "46.11594",
            "longitude": "-64.80186"
        },
        {
            "city": "Montague",
            "region": "09",
            "country": "CA",
            "latitude": "46.16681",
            "longitude": "-62.64866"
        },
        {
            "city": "Mont-Laurier",
            "region": "10",
            "country": "CA",
            "latitude": "46.55011",
            "longitude": "-75.4993"
        },
        {
            "city": "Montr\u00e9al",
            "region": "10",
            "country": "CA",
            "latitude": "45.50884",
            "longitude": "-73.58781"
        },
        {
            "city": "Montr\u00e9al-Est",
            "region": "10",
            "country": "CA",
            "latitude": "45.63202",
            "longitude": "-73.5075"
        },
        {
            "city": "Montr\u00e9al-Ouest",
            "region": "10",
            "country": "CA",
            "latitude": "45.45286",
            "longitude": "-73.64918"
        },
        {
            "city": "Mont-Royal",
            "region": "10",
            "country": "CA",
            "latitude": "45.51675",
            "longitude": "-73.64918"
        },
        {
            "city": "Mont-Saint-Hilaire",
            "region": "10",
            "country": "CA",
            "latitude": "45.56678",
            "longitude": "-73.19915"
        },
        {
            "city": "Mont-Tremblant",
            "region": "10",
            "country": "CA",
            "latitude": "46.19492",
            "longitude": "-74.62644"
        },
        {
            "city": "Moose Jaw",
            "region": "11",
            "country": "CA",
            "latitude": "50.40005",
            "longitude": "-105.53445"
        },
        {
            "city": "Moosomin",
            "region": "11",
            "country": "CA",
            "latitude": "50.13332",
            "longitude": "-101.66766"
        },
        {
            "city": "Morden",
            "region": "03",
            "country": "CA",
            "latitude": "49.1919",
            "longitude": "-98.10136"
        },
        {
            "city": "Morinville",
            "region": "01",
            "country": "CA",
            "latitude": "53.80014",
            "longitude": "-113.65203"
        },
        {
            "city": "Morris",
            "region": "03",
            "country": "CA",
            "latitude": "49.35499",
            "longitude": "-97.36567"
        },
        {
            "city": "Mount Pearl",
            "region": "05",
            "country": "CA",
            "latitude": "47.51659",
            "longitude": "-52.78135"
        },
        {
            "city": "Nackawic",
            "region": "04",
            "country": "CA",
            "latitude": "45.99341",
            "longitude": "-67.2189"
        },
        {
            "city": "Nakusp",
            "region": "02",
            "country": "CA",
            "latitude": "50.24987",
            "longitude": "-117.80226"
        },
        {
            "city": "Nanaimo",
            "region": "02",
            "country": "CA",
            "latitude": "49.16634",
            "longitude": "-123.93601"
        },
        {
            "city": "Nanton",
            "region": "01",
            "country": "CA",
            "latitude": "50.35008",
            "longitude": "-113.76866"
        },
        {
            "city": "Napierville",
            "region": "10",
            "country": "CA",
            "latitude": "45.18648",
            "longitude": "-73.40468"
        },
        {
            "city": "Neepawa",
            "region": "03",
            "country": "CA",
            "latitude": "50.22892",
            "longitude": "-99.46642"
        },
        {
            "city": "Nelson",
            "region": "02",
            "country": "CA",
            "latitude": "49.49985",
            "longitude": "-117.28553"
        },
        {
            "city": "New Glasgow",
            "region": "07",
            "country": "CA",
            "latitude": "45.58344",
            "longitude": "-62.64863"
        },
        {
            "city": "New Westminster",
            "region": "02",
            "country": "CA",
            "latitude": "49.20678",
            "longitude": "-122.91092"
        },
        {
            "city": "Niagara Falls",
            "region": "08",
            "country": "CA",
            "latitude": "43.10012",
            "longitude": "-79.06627"
        },
        {
            "city": "Nicolet",
            "region": "10",
            "country": "CA",
            "latitude": "46.21676",
            "longitude": "-72.61582"
        },
        {
            "city": "Nipawin",
            "region": "11",
            "country": "CA",
            "latitude": "53.36678",
            "longitude": "-104.00092"
        },
        {
            "city": "Niverville",
            "region": "03",
            "country": "CA",
            "latitude": "49.60559",
            "longitude": "-97.04234"
        },
        {
            "city": "Norfolk County",
            "region": "08",
            "country": "CA",
            "latitude": "42.8334",
            "longitude": "-80.38297"
        },
        {
            "city": "Normandin",
            "region": "10",
            "country": "CA",
            "latitude": "48.83328",
            "longitude": "-72.53209"
        },
        {
            "city": "Norman Wells",
            "region": "13",
            "country": "CA",
            "latitude": "65.28201",
            "longitude": "-126.8329"
        },
        {
            "city": "North Battleford",
            "region": "11",
            "country": "CA",
            "latitude": "52.78344",
            "longitude": "-108.28465"
        },
        {
            "city": "North Bay",
            "region": "08",
            "country": "CA",
            "latitude": "46.3168",
            "longitude": "-79.46633"
        },
        {
            "city": "North Cowichan",
            "region": "02",
            "country": "CA",
            "latitude": "48.84133",
            "longitude": "-123.68596"
        },
        {
            "city": "North Vancouver",
            "region": "02",
            "country": "CA",
            "latitude": "49.31636",
            "longitude": "-123.06934"
        },
        {
            "city": "North York",
            "region": "08",
            "country": "CA",
            "latitude": "43.76681",
            "longitude": "-79.4163"
        },
        {
            "city": "Notre-Dame-de-l'\u00cele-Perrot",
            "region": "10",
            "country": "CA",
            "latitude": "45.36678",
            "longitude": "-73.9325"
        },
        {
            "city": "Notre-Dame-des-Prairies",
            "region": "10",
            "country": "CA",
            "latitude": "46.05007",
            "longitude": "-73.43245"
        },
        {
            "city": "Notre-Dame-du-Bon-Conseil",
            "region": "10",
            "country": "CA",
            "latitude": "46.00006",
            "longitude": "-72.3491"
        },
        {
            "city": "Oakville",
            "region": "08",
            "country": "CA",
            "latitude": "43.45011",
            "longitude": "-79.68292"
        },
        {
            "city": "Oka",
            "region": "10",
            "country": "CA",
            "latitude": "45.46489",
            "longitude": "-74.08892"
        },
        {
            "city": "Okotoks",
            "region": "01",
            "country": "CA",
            "latitude": "50.72885",
            "longitude": "-113.98281"
        },
        {
            "city": "Olds",
            "region": "01",
            "country": "CA",
            "latitude": "51.78341",
            "longitude": "-114.10199"
        },
        {
            "city": "Oliver",
            "region": "02",
            "country": "CA",
            "latitude": "49.18306",
            "longitude": "-119.5524"
        },
        {
            "city": "Orangeville",
            "region": "08",
            "country": "CA",
            "latitude": "43.9168",
            "longitude": "-80.09967"
        },
        {
            "city": "Orillia",
            "region": "08",
            "country": "CA",
            "latitude": "44.60868",
            "longitude": "-79.42068"
        },
        {
            "city": "Ormstown",
            "region": "10",
            "country": "CA",
            "latitude": "45.13338",
            "longitude": "-73.99922"
        },
        {
            "city": "Oromocto",
            "region": "04",
            "country": "CA",
            "latitude": "45.83512",
            "longitude": "-66.47917"
        },
        {
            "city": "Oshawa",
            "region": "08",
            "country": "CA",
            "latitude": "43.90012",
            "longitude": "-78.84957"
        },
        {
            "city": "Osoyoos",
            "region": "02",
            "country": "CA",
            "latitude": "49.03306",
            "longitude": "-119.45237"
        },
        {
            "city": "Ottawa",
            "region": "08",
            "country": "CA",
            "latitude": "45.41117",
            "longitude": "-75.69812"
        },
        {
            "city": "Otterburn Park",
            "region": "10",
            "country": "CA",
            "latitude": "45.53338",
            "longitude": "-73.21585"
        },
        {
            "city": "Outlook",
            "region": "11",
            "country": "CA",
            "latitude": "51.50008",
            "longitude": "-107.05128"
        },
        {
            "city": "Owen Sound",
            "region": "08",
            "country": "CA",
            "latitude": "44.56717",
            "longitude": "-80.94349"
        },
        {
            "city": "Oxbow",
            "region": "11",
            "country": "CA",
            "latitude": "49.23335",
            "longitude": "-102.1676"
        },
        {
            "city": "Oxford",
            "region": "07",
            "country": "CA",
            "latitude": "45.73345",
            "longitude": "-63.86542"
        },
        {
            "city": "Pangnirtung",
            "region": "14",
            "country": "CA",
            "latitude": "66.14511",
            "longitude": "-65.71252"
        },
        {
            "city": "Papineauville",
            "region": "10",
            "country": "CA",
            "latitude": "45.6168",
            "longitude": "-75.01599"
        },
        {
            "city": "Parksville",
            "region": "02",
            "country": "CA",
            "latitude": "49.31633",
            "longitude": "-124.31945"
        },
        {
            "city": "Parrsboro",
            "region": "07",
            "country": "CA",
            "latitude": "45.40015",
            "longitude": "-64.33205"
        },
        {
            "city": "Parry Sound",
            "region": "08",
            "country": "CA",
            "latitude": "45.3501",
            "longitude": "-80.03296"
        },
        {
            "city": "Pasadena",
            "region": "05",
            "country": "CA",
            "latitude": "49.01671",
            "longitude": "-57.59837"
        },
        {
            "city": "Peace River",
            "region": "01",
            "country": "CA",
            "latitude": "56.2501",
            "longitude": "-117.28599"
        },
        {
            "city": "Peachland",
            "region": "02",
            "country": "CA",
            "latitude": "49.76647",
            "longitude": "-119.73568"
        },
        {
            "city": "Pemberton",
            "region": "02",
            "country": "CA",
            "latitude": "50.31641",
            "longitude": "-122.80273"
        },
        {
            "city": "Pembroke",
            "region": "08",
            "country": "CA",
            "latitude": "45.81681",
            "longitude": "-77.11616"
        },
        {
            "city": "Penhold",
            "region": "01",
            "country": "CA",
            "latitude": "52.13342",
            "longitude": "-113.8687"
        },
        {
            "city": "Penticton",
            "region": "02",
            "country": "CA",
            "latitude": "49.48062",
            "longitude": "-119.58584"
        },
        {
            "city": "Perth",
            "region": "08",
            "country": "CA",
            "latitude": "44.90011",
            "longitude": "-76.24939"
        },
        {
            "city": "Petawawa",
            "region": "08",
            "country": "CA",
            "latitude": "45.90012",
            "longitude": "-77.33277"
        },
        {
            "city": "Peterborough",
            "region": "08",
            "country": "CA",
            "latitude": "44.30012",
            "longitude": "-78.31623"
        },
        {
            "city": "Petrolia",
            "region": "08",
            "country": "CA",
            "latitude": "42.86678",
            "longitude": "-82.14981"
        },
        {
            "city": "Pickering",
            "region": "08",
            "country": "CA",
            "latitude": "43.90012",
            "longitude": "-79.13289"
        },
        {
            "city": "Pictou",
            "region": "07",
            "country": "CA",
            "latitude": "45.68344",
            "longitude": "-62.71534"
        },
        {
            "city": "Picture Butte",
            "region": "01",
            "country": "CA",
            "latitude": "49.8833",
            "longitude": "-112.78516"
        },
        {
            "city": "Pierreville",
            "region": "10",
            "country": "CA",
            "latitude": "46.07034",
            "longitude": "-72.81125"
        },
        {
            "city": "Pilot Butte",
            "region": "11",
            "country": "CA",
            "latitude": "50.46678",
            "longitude": "-104.41778"
        },
        {
            "city": "Pincher Creek",
            "region": "01",
            "country": "CA",
            "latitude": "49.48328",
            "longitude": "-113.95195"
        },
        {
            "city": "Pincourt",
            "region": "10",
            "country": "CA",
            "latitude": "45.38338",
            "longitude": "-73.9825"
        },
        {
            "city": "Pitt Meadows",
            "region": "02",
            "country": "CA",
            "latitude": "49.22119",
            "longitude": "-122.68965"
        },
        {
            "city": "Pointe-Claire",
            "region": "10",
            "country": "CA",
            "latitude": "45.44868",
            "longitude": "-73.81669"
        },
        {
            "city": "Ponoka",
            "region": "01",
            "country": "CA",
            "latitude": "52.6768",
            "longitude": "-113.58147"
        },
        {
            "city": "Pont Rouge",
            "region": "10",
            "country": "CA",
            "latitude": "48.88332",
            "longitude": "-72.08247"
        },
        {
            "city": "Portage la Prairie",
            "region": "03",
            "country": "CA",
            "latitude": "49.97282",
            "longitude": "-98.29263"
        },
        {
            "city": "Port Alberni",
            "region": "02",
            "country": "CA",
            "latitude": "49.24133",
            "longitude": "-124.8028"
        },
        {
            "city": "Port-Cartier",
            "region": "10",
            "country": "CA",
            "latitude": "50.03339",
            "longitude": "-66.86545"
        },
        {
            "city": "Port Colborne",
            "region": "08",
            "country": "CA",
            "latitude": "42.90012",
            "longitude": "-79.23288"
        },
        {
            "city": "Port Hawkesbury",
            "region": "07",
            "country": "CA",
            "latitude": "45.61685",
            "longitude": "-61.34853"
        },
        {
            "city": "Port Moody",
            "region": "02",
            "country": "CA",
            "latitude": "49.28297",
            "longitude": "-122.85263"
        },
        {
            "city": "Powassan",
            "region": "08",
            "country": "CA",
            "latitude": "46.0334",
            "longitude": "-79.34961"
        },
        {
            "city": "Powell River",
            "region": "02",
            "country": "CA",
            "latitude": "49.84962",
            "longitude": "-124.53612"
        },
        {
            "city": "Preeceville",
            "region": "11",
            "country": "CA",
            "latitude": "51.94998",
            "longitude": "-102.66766"
        },
        {
            "city": "Prescott",
            "region": "08",
            "country": "CA",
            "latitude": "44.71681",
            "longitude": "-75.51604"
        },
        {
            "city": "Pr\u00e9vost",
            "region": "10",
            "country": "CA",
            "latitude": "45.86678",
            "longitude": "-74.08251"
        },
        {
            "city": "Prince Albert",
            "region": "11",
            "country": "CA",
            "latitude": "53.20008",
            "longitude": "-105.76772"
        },
        {
            "city": "Prince Edward",
            "region": "08",
            "country": "CA",
            "latitude": "44.00012",
            "longitude": "-77.24946"
        },
        {
            "city": "Prince George",
            "region": "02",
            "country": "CA",
            "latitude": "53.9166",
            "longitude": "-122.75301"
        },
        {
            "city": "Prince Rupert",
            "region": "02",
            "country": "CA",
            "latitude": "54.31614",
            "longitude": "-130.32012"
        },
        {
            "city": "Princeton",
            "region": "02",
            "country": "CA",
            "latitude": "49.45802",
            "longitude": "-120.51076"
        },
        {
            "city": "Princeville",
            "region": "07",
            "country": "CA",
            "latitude": "45.76684",
            "longitude": "-61.29853"
        },
        {
            "city": "Provost",
            "region": "01",
            "country": "CA",
            "latitude": "52.35014",
            "longitude": "-110.26828"
        },
        {
            "city": "Quesnel",
            "region": "02",
            "country": "CA",
            "latitude": "52.99988",
            "longitude": "-122.50289"
        },
        {
            "city": "Quinte West",
            "region": "08",
            "country": "CA",
            "latitude": "44.18342",
            "longitude": "-77.56618"
        },
        {
            "city": "Rankin Inlet",
            "region": "14",
            "country": "CA",
            "latitude": "62.81732",
            "longitude": "-92.08324"
        },
        {
            "city": "Rawdon",
            "region": "10",
            "country": "CA",
            "latitude": "46.05007",
            "longitude": "-73.71587"
        },
        {
            "city": "Raymond",
            "region": "01",
            "country": "CA",
            "latitude": "49.44998",
            "longitude": "-112.65185"
        },
        {
            "city": "Red Deer",
            "region": "01",
            "country": "CA",
            "latitude": "52.26682",
            "longitude": "-113.802"
        },
        {
            "city": "Regina",
            "region": "11",
            "country": "CA",
            "latitude": "50.45008",
            "longitude": "-104.6178"
        },
        {
            "city": "Renfrew",
            "region": "08",
            "country": "CA",
            "latitude": "45.46681",
            "longitude": "-76.68272"
        },
        {
            "city": "Repentigny",
            "region": "10",
            "country": "CA",
            "latitude": "45.74222",
            "longitude": "-73.45008"
        },
        {
            "city": "Revelstoke",
            "region": "02",
            "country": "CA",
            "latitude": "50.98317",
            "longitude": "-118.2023"
        },
        {
            "city": "Richelieu",
            "region": "10",
            "country": "CA",
            "latitude": "45.44336",
            "longitude": "-73.24602"
        },
        {
            "city": "Richibucto",
            "region": "04",
            "country": "CA",
            "latitude": "46.68073",
            "longitude": "-64.88044"
        },
        {
            "city": "Richmond",
            "region": "10",
            "country": "CA",
            "latitude": "45.66677",
            "longitude": "-72.1491"
        },
        {
            "city": "Richmond",
            "region": "02",
            "country": "CA",
            "latitude": "49.17003",
            "longitude": "-123.13683"
        },
        {
            "city": "Rigaud",
            "region": "10",
            "country": "CA",
            "latitude": "45.47927",
            "longitude": "-74.30238"
        },
        {
            "city": "Rimbey",
            "region": "01",
            "country": "CA",
            "latitude": "52.6334",
            "longitude": "-114.23532"
        },
        {
            "city": "Rivers",
            "region": "03",
            "country": "CA",
            "latitude": "50.03081",
            "longitude": "-100.24029"
        },
        {
            "city": "Rivi\u00e8re-Rouge",
            "region": "10",
            "country": "CA",
            "latitude": "46.41679",
            "longitude": "-74.86596"
        },
        {
            "city": "Roberval",
            "region": "10",
            "country": "CA",
            "latitude": "48.5168",
            "longitude": "-72.23244"
        },
        {
            "city": "Roblin",
            "region": "03",
            "country": "CA",
            "latitude": "51.22999",
            "longitude": "-101.3565"
        },
        {
            "city": "Rocky Mountain House",
            "region": "01",
            "country": "CA",
            "latitude": "52.36683",
            "longitude": "-114.9188"
        },
        {
            "city": "Rosem\u00e8re",
            "region": "10",
            "country": "CA",
            "latitude": "45.63338",
            "longitude": "-73.79919"
        },
        {
            "city": "Rosetown",
            "region": "11",
            "country": "CA",
            "latitude": "51.5501",
            "longitude": "-108.00136"
        },
        {
            "city": "Rossland",
            "region": "02",
            "country": "CA",
            "latitude": "49.08313",
            "longitude": "-117.80224"
        },
        {
            "city": "Rosthern",
            "region": "11",
            "country": "CA",
            "latitude": "52.66679",
            "longitude": "-106.33446"
        },
        {
            "city": "Rougemont",
            "region": "10",
            "country": "CA",
            "latitude": "45.43338",
            "longitude": "-73.04914"
        },
        {
            "city": "Rouyn-Noranda",
            "region": "10",
            "country": "CA",
            "latitude": "48.23985",
            "longitude": "-79.02878"
        },
        {
            "city": "Sackville",
            "region": "04",
            "country": "CA",
            "latitude": "45.91875",
            "longitude": "-64.38455"
        },
        {
            "city": "Saguenay",
            "region": "10",
            "country": "CA",
            "latitude": "48.41675",
            "longitude": "-71.06573"
        },
        {
            "city": "Saint-Alexis-des-Monts",
            "region": "10",
            "country": "CA",
            "latitude": "46.46676",
            "longitude": "-73.13244"
        },
        {
            "city": "Saint-Ambroise",
            "region": "10",
            "country": "CA",
            "latitude": "48.55009",
            "longitude": "-71.33238"
        },
        {
            "city": "Saint-Andr\u00e9-Avellin",
            "region": "10",
            "country": "CA",
            "latitude": "45.7168",
            "longitude": "-75.06599"
        },
        {
            "city": "Saint Andrews",
            "region": "04",
            "country": "CA",
            "latitude": "45.08454",
            "longitude": "-67.06169"
        },
        {
            "city": "Saint-Augustin",
            "region": "10",
            "country": "CA",
            "latitude": "51.22602",
            "longitude": "-58.65017"
        },
        {
            "city": "Saint-Basile-le-Grand",
            "region": "10",
            "country": "CA",
            "latitude": "45.53338",
            "longitude": "-73.28246"
        },
        {
            "city": "Saint-Bruno-de-Guigues",
            "region": "10",
            "country": "CA",
            "latitude": "47.46685",
            "longitude": "-79.43296"
        },
        {
            "city": "Saint-Bruno-de-Montarville",
            "region": "10",
            "country": "CA",
            "latitude": "45.53341",
            "longitude": "-73.34916"
        },
        {
            "city": "Saint-C\u00e9saire",
            "region": "10",
            "country": "CA",
            "latitude": "45.41678",
            "longitude": "-72.99914"
        },
        {
            "city": "Saint-C\u00f4me--Lini\u00e8re",
            "region": "10",
            "country": "CA",
            "latitude": "46.06677",
            "longitude": "-70.51573"
        },
        {
            "city": "Saint-Constant",
            "region": "10",
            "country": "CA",
            "latitude": "45.36678",
            "longitude": "-73.56588"
        },
        {
            "city": "Saint-Cyrille-de-Wendover",
            "region": "10",
            "country": "CA",
            "latitude": "45.93336",
            "longitude": "-72.43241"
        },
        {
            "city": "Saint-Damase",
            "region": "10",
            "country": "CA",
            "latitude": "45.53341",
            "longitude": "-72.99914"
        },
        {
            "city": "Saint-Denis-sur-Richelieu",
            "region": "10",
            "country": "CA",
            "latitude": "45.78338",
            "longitude": "-73.14915"
        },
        {
            "city": "Sainte-Ad\u00e8le",
            "region": "10",
            "country": "CA",
            "latitude": "45.95008",
            "longitude": "-74.13251"
        },
        {
            "city": "Sainte-Agathe-des-Monts",
            "region": "10",
            "country": "CA",
            "latitude": "46.05009",
            "longitude": "-74.28252"
        },
        {
            "city": "Sainte-Anne-de-Bellevue",
            "region": "10",
            "country": "CA",
            "latitude": "45.40618",
            "longitude": "-73.9456"
        },
        {
            "city": "Sainte-Anne-des-Monts",
            "region": "10",
            "country": "CA",
            "latitude": "49.12402",
            "longitude": "-66.49243"
        },
        {
            "city": "Sainte-Anne-des-Plaines",
            "region": "10",
            "country": "CA",
            "latitude": "45.76468",
            "longitude": "-73.81156"
        },
        {
            "city": "Sainte-Catherine",
            "region": "10",
            "country": "CA",
            "latitude": "46.31836",
            "longitude": "-72.56632"
        },
        {
            "city": "Sainte-Julie",
            "region": "10",
            "country": "CA",
            "latitude": "45.58338",
            "longitude": "-73.33246"
        },
        {
            "city": "Sainte-Julienne",
            "region": "10",
            "country": "CA",
            "latitude": "45.96677",
            "longitude": "-73.71587"
        },
        {
            "city": "Sainte-Marthe-sur-le-Lac",
            "region": "10",
            "country": "CA",
            "latitude": "45.53338",
            "longitude": "-73.9325"
        },
        {
            "city": "Sainte-Martine",
            "region": "10",
            "country": "CA",
            "latitude": "45.25008",
            "longitude": "-73.79919"
        },
        {
            "city": "Sainte-Sophie",
            "region": "10",
            "country": "CA",
            "latitude": "45.81678",
            "longitude": "-73.89919"
        },
        {
            "city": "Sainte-Th\u00e8cle",
            "region": "10",
            "country": "CA",
            "latitude": "46.81676",
            "longitude": "-72.49911"
        },
        {
            "city": "Sainte-Th\u00e9r\u00e8se",
            "region": "10",
            "country": "CA",
            "latitude": "45.63922",
            "longitude": "-73.82757"
        },
        {
            "city": "Saint-Eustache",
            "region": "10",
            "country": "CA",
            "latitude": "45.565",
            "longitude": "-73.90554"
        },
        {
            "city": "Saint-F\u00e9licien",
            "region": "10",
            "country": "CA",
            "latitude": "48.65007",
            "longitude": "-72.44906"
        },
        {
            "city": "Saint-F\u00e9lix-de-Valois",
            "region": "10",
            "country": "CA",
            "latitude": "46.16677",
            "longitude": "-73.43245"
        },
        {
            "city": "Saint-Gabriel",
            "region": "10",
            "country": "CA",
            "latitude": "46.30007",
            "longitude": "-73.38245"
        },
        {
            "city": "Saint-G\u00e9d\u00e9on",
            "region": "10",
            "country": "CA",
            "latitude": "48.50009",
            "longitude": "-71.76581"
        },
        {
            "city": "Saint-Germain-de-Grantham",
            "region": "10",
            "country": "CA",
            "latitude": "45.83337",
            "longitude": "-72.56582"
        },
        {
            "city": "Saint-Hyacinthe",
            "region": "10",
            "country": "CA",
            "latitude": "45.61678",
            "longitude": "-72.94914"
        },
        {
            "city": "Saint-Jacques",
            "region": "10",
            "country": "CA",
            "latitude": "45.95007",
            "longitude": "-73.56586"
        },
        {
            "city": "Saint-Jean-sur-Richelieu",
            "region": "10",
            "country": "CA",
            "latitude": "45.31678",
            "longitude": "-73.26586"
        },
        {
            "city": "Saint-J\u00e9r\u00f4me",
            "region": "10",
            "country": "CA",
            "latitude": "45.78036",
            "longitude": "-74.00365"
        },
        {
            "city": "Saint John",
            "region": "04",
            "country": "CA",
            "latitude": "45.27271",
            "longitude": "-66.06766"
        },
        {
            "city": "Saint-Joseph-de-Coleraine",
            "region": "10",
            "country": "CA",
            "latitude": "45.96677",
            "longitude": "-71.36577"
        },
        {
            "city": "Saint-Lambert",
            "region": "10",
            "country": "CA",
            "latitude": "48.95272",
            "longitude": "-79.4593"
        },
        {
            "city": "Saint-Laurent",
            "region": "10",
            "country": "CA",
            "latitude": "45.50008",
            "longitude": "-73.66585"
        },
        {
            "city": "Saint-Lazare",
            "region": "10",
            "country": "CA",
            "latitude": "45.40008",
            "longitude": "-74.13256"
        },
        {
            "city": "Saint-Lin--Laurentides",
            "region": "10",
            "country": "CA",
            "latitude": "45.85008",
            "longitude": "-73.76588"
        },
        {
            "city": "Saint-Marc-des-Carri\u00e8res",
            "region": "10",
            "country": "CA",
            "latitude": "46.68335",
            "longitude": "-72.0491"
        },
        {
            "city": "Saint-Martin",
            "region": "10",
            "country": "CA",
            "latitude": "45.96677",
            "longitude": "-70.64903"
        },
        {
            "city": "Saint-Michel-des-Saints",
            "region": "10",
            "country": "CA",
            "latitude": "46.68338",
            "longitude": "-73.91589"
        },
        {
            "city": "Saint-Pie",
            "region": "10",
            "country": "CA",
            "latitude": "45.50008",
            "longitude": "-72.89913"
        },
        {
            "city": "Saint-Raymond",
            "region": "10",
            "country": "CA",
            "latitude": "45.46698",
            "longitude": "-73.60948"
        },
        {
            "city": "Saint-R\u00e9mi",
            "region": "10",
            "country": "CA",
            "latitude": "45.26678",
            "longitude": "-73.61588"
        },
        {
            "city": "Saint-Sauveur",
            "region": "10",
            "country": "CA",
            "latitude": "45.90008",
            "longitude": "-74.16588"
        },
        {
            "city": "Saint-Tite",
            "region": "10",
            "country": "CA",
            "latitude": "46.73336",
            "longitude": "-72.56581"
        },
        {
            "city": "Salaberry-de-Valleyfield",
            "region": "10",
            "country": "CA",
            "latitude": "45.25008",
            "longitude": "-74.13253"
        },
        {
            "city": "Salisbury",
            "region": "04",
            "country": "CA",
            "latitude": "46.03905",
            "longitude": "-65.04628"
        },
        {
            "city": "Salmo",
            "region": "02",
            "country": "CA",
            "latitude": "49.19986",
            "longitude": "-117.2689"
        },
        {
            "city": "Salmon Arm",
            "region": "02",
            "country": "CA",
            "latitude": "50.6998",
            "longitude": "-119.30237"
        },
        {
            "city": "Sarnia",
            "region": "08",
            "country": "CA",
            "latitude": "42.97866",
            "longitude": "-82.40407"
        },
        {
            "city": "Saskatoon",
            "region": "11",
            "country": "CA",
            "latitude": "52.11679",
            "longitude": "-106.63452"
        },
        {
            "city": "Sault Ste. Marie",
            "region": "08",
            "country": "CA",
            "latitude": "46.51677",
            "longitude": "-84.33325"
        },
        {
            "city": "Sechelt",
            "region": "02",
            "country": "CA",
            "latitude": "49.46636",
            "longitude": "-123.76943"
        },
        {
            "city": "Selkirk",
            "region": "03",
            "country": "CA",
            "latitude": "50.1436",
            "longitude": "-96.88452"
        },
        {
            "city": "Senneterre",
            "region": "10",
            "country": "CA",
            "latitude": "48.38349",
            "longitude": "-77.23275"
        },
        {
            "city": "Sept-\u00celes",
            "region": "10",
            "country": "CA",
            "latitude": "50.20011",
            "longitude": "-66.38208"
        },
        {
            "city": "Sexsmith",
            "region": "01",
            "country": "CA",
            "latitude": "55.34998",
            "longitude": "-118.78602"
        },