{
    "country": "China",
    "code": "CN",
    "cities": [
        {
            "city": "Zhedao",
            "region": "29",
            "country": "CN",
            "latitude": "24.81934",
            "longitude": "98.27627"
        },
        {
            "city": "Zhangfeng",
            "region": "29",
            "country": "CN",
            "latitude": "24.22085",
            "longitude": "97.78683"
        },
        {
            "city": "Yuhu",
            "region": "29",
            "country": "CN",
            "latitude": "26.10679",
            "longitude": "99.98292"
        },
        {
            "city": "Xigaz\u00ea",
            "region": "14",
            "country": "CN",
            "latitude": "29.25",
            "longitude": "88.88333"
        },
        {
            "city": "Xarsingma",
            "region": "14",
            "country": "CN",
            "latitude": "27.49402",
            "longitude": "88.95296"
        },
        {
            "city": "Tungdor",
            "region": "14",
            "country": "CN",
            "latitude": "29.2",
            "longitude": "94.08333"
        },
        {
            "city": "Darya Boyi",
            "region": "13",
            "country": "CN",
            "latitude": "38.38333",
            "longitude": "82"
        },
        {
            "city": "Tengyue",
            "region": "29",
            "country": "CN",
            "latitude": "24.99492",
            "longitude": "98.51276"
        },
        {
            "city": "Suzhou",
            "region": "15",
            "country": "CN",
            "latitude": "39.76667",
            "longitude": "98.56667"
        },
        {
            "city": "Shimen",
            "region": "29",
            "country": "CN",
            "latitude": "25.89479",
            "longitude": "99.42936"
        },
        {
            "city": "Dianyang",
            "region": "29",
            "country": "CN",
            "latitude": "24.70261",
            "longitude": "99.15919"
        },
        {
            "city": "Shengping",
            "region": "29",
            "country": "CN",
            "latitude": "28.51097",
            "longitude": "99.01592"
        },
        {
            "city": "Shangpa",
            "region": "29",
            "country": "CN",
            "latitude": "26.91948",
            "longitude": "98.95158"
        },
        {
            "city": "Shache",
            "region": "13",
            "country": "CN",
            "latitude": "38.41667",
            "longitude": "77.24056"
        },
        {
            "city": "Q\u00fcmong",
            "region": "32",
            "country": "CN",
            "latitude": "32.97771",
            "longitude": "98.09795"
        },
        {
            "city": "Qamdo",
            "region": "14",
            "country": "CN",
            "latitude": "31.16667",
            "longitude": "97.23333"
        },
        {
            "city": "Jiajuedibu",
            "region": "14",
            "country": "CN",
            "latitude": "30.93333",
            "longitude": "88.63333"
        },
        {
            "city": "Pingyuan",
            "region": "29",
            "country": "CN",
            "latitude": "24.73642",
            "longitude": "97.91358"
        },
        {
            "city": "Ngamring",
            "region": "14",
            "country": "CN",
            "latitude": "29.23333",
            "longitude": "87.16667"
        },
        {
            "city": "Nagqu",
            "region": "14",
            "country": "CN",
            "latitude": "31.5",
            "longitude": "92"
        },
        {
            "city": "Mengsuo",
            "region": "29",
            "country": "CN",
            "latitude": "22.60199",
            "longitude": "99.55137"
        },
        {
            "city": "Mengmeng",
            "region": "29",
            "country": "CN",
            "latitude": "23.46502",
            "longitude": "99.80206"
        },
        {
            "city": "Menglang",
            "region": "29",
            "country": "CN",
            "latitude": "22.56214",
            "longitude": "99.91029"
        },
        {
            "city": "Mengdong",
            "region": "29",
            "country": "CN",
            "latitude": "23.16152",
            "longitude": "99.20226"
        },
        {
            "city": "Luzhang",
            "region": "29",
            "country": "CN",
            "latitude": "25.97309",
            "longitude": "98.82345"
        },
        {
            "city": "Longshan",
            "region": "29",
            "country": "CN",
            "latitude": "24.60089",
            "longitude": "98.70418"
        },
        {
            "city": "Lhasa",
            "region": "14",
            "country": "CN",
            "latitude": "29.65",
            "longitude": "91.1"
        },
        {
            "city": "Laojunmiao",
            "region": "15",
            "country": "CN",
            "latitude": "39.83333",
            "longitude": "97.73333"
        },
        {
            "city": "Laojie",
            "region": "29",
            "country": "CN",
            "latitude": "25.44829",
            "longitude": "99.5561"
        },
        {
            "city": "Kashi",
            "region": "13",
            "country": "CN",
            "latitude": "39.45472",
            "longitude": "75.97972"
        },
        {
            "city": "Jomda",
            "region": "14",
            "country": "CN",
            "latitude": "31.5",
            "longitude": "98.26667"
        },
        {
            "city": "Jinhua",
            "region": "29",
            "country": "CN",
            "latitude": "26.538",
            "longitude": "99.91715"
        },
        {
            "city": "Jinding",
            "region": "29",
            "country": "CN",
            "latitude": "26.43903",
            "longitude": "99.44061"
        },
        {
            "city": "Jiayuguan",
            "region": "15",
            "country": "CN",
            "latitude": "39.81667",
            "longitude": "98.3"
        },
        {
            "city": "Hotan",
            "region": "13",
            "country": "CN",
            "latitude": "37.09972",
            "longitude": "79.92694"
        },
        {
            "city": "Heimahe",
            "region": "06",
            "country": "CN",
            "latitude": "36.72893",
            "longitude": "99.77684"
        },
        {
            "city": "Gyigang",
            "region": "14",
            "country": "CN",
            "latitude": "28.66667",
            "longitude": "97.51667"
        },
        {
            "city": "Gyangz\u00ea",
            "region": "14",
            "country": "CN",
            "latitude": "28.95",
            "longitude": "89.63333"
        },
        {
            "city": "Gyangkar",
            "region": "14",
            "country": "CN",
            "latitude": "28.4",
            "longitude": "87.8"
        },
        {
            "city": "Gyamotang",
            "region": "14",
            "country": "CN",
            "latitude": "31.53333",
            "longitude": "95.43333"
        },
        {
            "city": "Gengqing",
            "region": "32",
            "country": "CN",
            "latitude": "31.81649",
            "longitude": "98.59579"
        },
        {
            "city": "Gengma",
            "region": "29",
            "country": "CN",
            "latitude": "23.52325",
            "longitude": "99.3786"
        },
        {
            "city": "Jiding",
            "region": "14",
            "country": "CN",
            "latitude": "29.36667",
            "longitude": "88.25"
        },
        {
            "city": "Gar",
            "region": "14",
            "country": "CN",
            "latitude": "32.2",
            "longitude": "79.98333"
        },
        {
            "city": "Gartog",
            "region": "14",
            "country": "CN",
            "latitude": "29.68333",
            "longitude": "98.55"
        },
        {
            "city": "Kambaxoi",
            "region": "14",
            "country": "CN",
            "latitude": "28.3",
            "longitude": "88.53333"
        },
        {
            "city": "Nansan",
            "region": "29",
            "country": "CN",
            "latitude": "23.79574",
            "longitude": "98.80397"
        },
        {
            "city": "Fengshan",
            "region": "29",
            "country": "CN",
            "latitude": "24.58333",
            "longitude": "99.9"
        },
        {
            "city": "Domartang",
            "region": "14",
            "country": "CN",
            "latitude": "30.9",
            "longitude": "94.83333"
        },
        {
            "city": "D\u00eaq\u00ean",
            "region": "14",
            "country": "CN",
            "latitude": "29.96178",
            "longitude": "90.71875"
        },
        {
            "city": "Dedang",
            "region": "29",
            "country": "CN",
            "latitude": "24.0118",
            "longitude": "99.23964"
        },
        {
            "city": "Dartang",
            "region": "14",
            "country": "CN",
            "latitude": "31.93333",
            "longitude": "94"
        },
        {
            "city": "Chongdui",
            "region": "14",
            "country": "CN",
            "latitude": "28.15",
            "longitude": "85.96667"
        },
        {
            "city": "Cikai",
            "region": "29",
            "country": "CN",
            "latitude": "27.76344",
            "longitude": "98.71105"
        },
        {
            "city": "Youdian",
            "region": "29",
            "country": "CN",
            "latitude": "24.82894",
            "longitude": "99.59232"
        },
        {
            "city": "Burang",
            "region": "14",
            "country": "CN",
            "latitude": "30.25",
            "longitude": "81.16667"
        },
        {
            "city": "Baohe",
            "region": "29",
            "country": "CN",
            "latitude": "27.19582",
            "longitude": "99.32483"
        },
        {
            "city": "Baima",
            "region": "14",
            "country": "CN",
            "latitude": "30.05",
            "longitude": "96.9"
        },
        {
            "city": "Layka",
            "region": "13",
            "country": "CN",
            "latitude": "37.07694",
            "longitude": "79.73167"
        },
        {
            "city": "Wanjheri Shar\u012bf",
            "region": "11",
            "country": "CN",
            "latitude": "29.02634",
            "longitude": "110.63324"
        },
        {
            "city": "Urunchi",
            "region": "13",
            "country": "CN",
            "latitude": "43.8",
            "longitude": "87.58333"
        },
        {
            "city": "Turpan",
            "region": "13",
            "country": "CN",
            "latitude": "42.93333",
            "longitude": "89.16667"
        },
        {
            "city": "Shihezi",
            "region": "13",
            "country": "CN",
            "latitude": "44.3",
            "longitude": "86.03333"
        },
        {
            "city": "Kuqa",
            "region": "13",
            "country": "CN",
            "latitude": "41.72778",
            "longitude": "82.93639"
        },
        {
            "city": "Korla",
            "region": "13",
            "country": "CN",
            "latitude": "41.75972",
            "longitude": "86.14694"
        },
        {
            "city": "Hami",
            "region": "13",
            "country": "CN",
            "latitude": "42.8",
            "longitude": "93.45"
        },
        {
            "city": "Changji",
            "region": "13",
            "country": "CN",
            "latitude": "44.01667",
            "longitude": "87.31667"
        },
        {
            "city": "Baijiantan",
            "region": "13",
            "country": "CN",
            "latitude": "45.63333",
            "longitude": "85.18333"
        },
        {
            "city": "Aral",
            "region": "13",
            "country": "CN",
            "latitude": "40.51556",
            "longitude": "81.26361"
        },
        {
            "city": "Altay",
            "region": "13",
            "country": "CN",
            "latitude": "47.86667",
            "longitude": "88.11667"
        },
        {
            "city": "Aksu",
            "region": "13",
            "country": "CN",
            "latitude": "41.12306",
            "longitude": "80.26444"
        },
        {
            "city": "Shechenzhuang",
            "region": "04",
            "country": "CN",
            "latitude": "33.00576",
            "longitude": "120.23678"
        },
        {
            "city": "Xiaohai",
            "region": "04",
            "country": "CN",
            "latitude": "33.02956",
            "longitude": "120.47596"
        },
        {
            "city": "Guanyinsi",
            "region": "04",
            "country": "CN",
            "latitude": "33.08774",
            "longitude": "120.17989"
        },
        {
            "city": "Xindu",
            "region": "04",
            "country": "CN",
            "latitude": "33.34167",
            "longitude": "120.13333"
        },
        {
            "city": "Gaojiazhuang",
            "region": "04",
            "country": "CN",
            "latitude": "33.04459",
            "longitude": "119.983"
        },
        {
            "city": "Baizhang",
            "region": "04",
            "country": "CN",
            "latitude": "31.92254",
            "longitude": "119.97055"
        },
        {
            "city": "Changdai",
            "region": "04",
            "country": "CN",
            "latitude": "32.03611",
            "longitude": "120.21667"
        },
        {
            "city": "Shengci",
            "region": "04",
            "country": "CN",
            "latitude": "32.03611",
            "longitude": "120.16389"
        },
        {
            "city": "Hongguang",
            "region": "04",
            "country": "CN",
            "latitude": "32.06389",
            "longitude": "120.1"
        },
        {
            "city": "Sunjiadaqiao",
            "region": "04",
            "country": "CN",
            "latitude": "32.086",
            "longitude": "120.27736"
        },
        {
            "city": "Jiang\u2019an",
            "region": "04",
            "country": "CN",
            "latitude": "32.16944",
            "longitude": "120.40556"
        },
        {
            "city": "Shanhu",
            "region": "04",
            "country": "CN",
            "latitude": "32.17803",
            "longitude": "120.32181"
        },
        {
            "city": "Nansha",
            "region": "04",
            "country": "CN",
            "latitude": "32.17284",
            "longitude": "120.21997"
        },
        {
            "city": "Changqing",
            "region": "04",
            "country": "CN",
            "latitude": "32.26111",
            "longitude": "120.45556"
        },
        {
            "city": "Gaoming",
            "region": "04",
            "country": "CN",
            "latitude": "32.25556",
            "longitude": "120.37778"
        },
        {
            "city": "Taoyuan",
            "region": "04",
            "country": "CN",
            "latitude": "32.29722",
            "longitude": "120.61667"
        },
        {
            "city": "Liuchen",
            "region": "04",
            "country": "CN",
            "latitude": "32.26667",
            "longitude": "120.15"
        },
        {
            "city": "Hengjiaduo",
            "region": "04",
            "country": "CN",
            "latitude": "32.31944",
            "longitude": "120.2803"
        },
        {
            "city": "Yuanzhu",
            "region": "04",
            "country": "CN",
            "latitude": "32.32415",
            "longitude": "120.17484"
        },
        {
            "city": "Guba",
            "region": "04",
            "country": "CN",
            "latitude": "32.40496",
            "longitude": "120.95158"
        },
        {
            "city": "Yuanzhuang",
            "region": "04",
            "country": "CN",
            "latitude": "32.44561",
            "longitude": "120.77288"
        },
        {
            "city": "Xue\u2019an",
            "region": "04",
            "country": "CN",
            "latitude": "32.46389",
            "longitude": "120.68333"
        },
        {
            "city": "Liangxu",
            "region": "04",
            "country": "CN",
            "latitude": "32.46944",
            "longitude": "120.11667"
        },
        {
            "city": "Xichang",
            "region": "04",
            "country": "CN",
            "latitude": "32.525",
            "longitude": "120.59167"
        },
        {
            "city": "Dingjiashe",
            "region": "04",
            "country": "CN",
            "latitude": "32.58611",
            "longitude": "120.13333"
        },
        {
            "city": "Dagong",
            "region": "04",
            "country": "CN",
            "latitude": "32.625",
            "longitude": "120.52222"
        },
        {
            "city": "Yujiaduo",
            "region": "04",
            "country": "CN",
            "latitude": "32.64077",
            "longitude": "120.01283"
        },
        {
            "city": "Baidian",
            "region": "04",
            "country": "CN",
            "latitude": "32.67778",
            "longitude": "120.26389"
        },
        {
            "city": "Xiaodianzhi",
            "region": "04",
            "country": "CN",
            "latitude": "32.68611",
            "longitude": "120.075"
        },
        {
            "city": "Fudong",
            "region": "04",
            "country": "CN",
            "latitude": "32.71944",
            "longitude": "120.55833"
        },
        {
            "city": "Tainan",
            "region": "04",
            "country": "CN",
            "latitude": "32.76205",
            "longitude": "120.26944"
        },
        {
            "city": "Zhaowanzhuang",
            "region": "04",
            "country": "CN",
            "latitude": "32.74486",
            "longitude": "120.16667"
        },
        {
            "city": "Taozhuang",
            "region": "04",
            "country": "CN",
            "latitude": "32.86667",
            "longitude": "120.13889"
        },
        {
            "city": "Daiyao",
            "region": "04",
            "country": "CN",
            "latitude": "32.92913",
            "longitude": "120.21426"
        },
        {
            "city": "Minggou",
            "region": "04",
            "country": "CN",
            "latitude": "32.24917",
            "longitude": "119.9075"
        },
        {
            "city": "Yexu",
            "region": "04",
            "country": "CN",
            "latitude": "32.39733",
            "longitude": "119.92798"
        },
        {
            "city": "Jiuliqiao",
            "region": "04",
            "country": "CN",
            "latitude": "32.50556",
            "longitude": "119.97222"
        },
        {
            "city": "Dongbaozhuang",
            "region": "04",
            "country": "CN",
            "latitude": "32.98376",
            "longitude": "119.92047"
        },
        {
            "city": "Zhougang",
            "region": "04",
            "country": "CN",
            "latitude": "31.79702",
            "longitude": "118.96073"
        },
        {
            "city": "Youyupu",
            "region": "18",
            "country": "CN",
            "latitude": "27.55972",
            "longitude": "109.13778"
        },
        {
            "city": "Zhujiachang",
            "region": "18",
            "country": "CN",
            "latitude": "27.3575",
            "longitude": "108.93833"
        },
        {
            "city": "Xujiaba",
            "region": "18",
            "country": "CN",
            "latitude": "27.88472",
            "longitude": "108.11361"
        },
        {
            "city": "Sanchahe",
            "region": "18",
            "country": "CN",
            "latitude": "28.49528",
            "longitude": "106.42833"
        },
        {
            "city": "Sihe",
            "region": "01",
            "country": "CN",
            "latitude": "30.7",
            "longitude": "119.25833"
        },
        {
            "city": "Yuewan",
            "region": "01",
            "country": "CN",
            "latitude": "30.7547",
            "longitude": "119.14143"
        },
        {
            "city": "Sanlidian",
            "region": "01",
            "country": "CN",
            "latitude": "30.88333",
            "longitude": "119.4"
        },
        {
            "city": "Fengqiao",
            "region": "01",
            "country": "CN",
            "latitude": "30.84094",
            "longitude": "119.3059"
        },
        {
            "city": "Wangxi",
            "region": "01",
            "country": "CN",
            "latitude": "30.68673",
            "longitude": "118.97282"
        },
        {
            "city": "Yishan",
            "region": "01",
            "country": "CN",
            "latitude": "30.82759",
            "longitude": "118.81698"
        },
        {
            "city": "Gaoqiao",
            "region": "01",
            "country": "CN",
            "latitude": "30.79957",
            "longitude": "118.57344"
        },
        {
            "city": "Xiangyang",
            "region": "01",
            "country": "CN",
            "latitude": "30.89564",
            "longitude": "118.86678"
        },
        {
            "city": "Xiadu",
            "region": "01",
            "country": "CN",
            "latitude": "30.92364",
            "longitude": "118.77759"
        },
        {
            "city": "Jinba",
            "region": "01",
            "country": "CN",
            "latitude": "30.87929",
            "longitude": "118.66986"
        },
        {
            "city": "Shuangxi",
            "region": "01",
            "country": "CN",
            "latitude": "30.95815",
            "longitude": "118.80454"
        },
        {
            "city": "Dingdian",
            "region": "01",
            "country": "CN",
            "latitude": "30.98376",
            "longitude": "118.86152"
        },
        {
            "city": "Qinxi",
            "region": "01",
            "country": "CN",
            "latitude": "30.72943",
            "longitude": "118.49106"
        },
        {
            "city": "Taiyuan",
            "region": "01",
            "country": "CN",
            "latitude": "30.71093",
            "longitude": "118.40048"
        },
        {
            "city": "Beigong",
            "region": "01",
            "country": "CN",
            "latitude": "30.68092",
            "longitude": "118.19925"
        },
        {
            "city": "Yandun",
            "region": "01",
            "country": "CN",
            "latitude": "30.72174",
            "longitude": "118.15757"
        },
        {
            "city": "Youhua",
            "region": "01",
            "country": "CN",
            "latitude": "30.67796",
            "longitude": "118.00674"
        },
        {
            "city": "Gufeng",
            "region": "01",
            "country": "CN",
            "latitude": "30.76183",
            "longitude": "118.36483"
        },
        {
            "city": "Tongtuan",
            "region": "01",
            "country": "CN",
            "latitude": "30.825",
            "longitude": "118.34167"
        },
        {
            "city": "Wenchang",
            "region": "01",
            "country": "CN",
            "latitude": "30.90403",
            "longitude": "118.48869"
        },
        {
            "city": "Shipu",
            "region": "01",
            "country": "CN",
            "latitude": "30.9152",
            "longitude": "118.38354"
        },
        {
            "city": "Gelin",
            "region": "01",
            "country": "CN",
            "latitude": "30.88267",
            "longitude": "118.38196"
        },
        {
            "city": "L\u00fcling",
            "region": "01",
            "country": "CN",
            "latitude": "30.84893",
            "longitude": "118.12652"
        },
        {
            "city": "Wenwucao",
            "region": "01",
            "country": "CN",
            "latitude": "30.9209",
            "longitude": "118.11029"
        },
        {
            "city": "Donghe",
            "region": "01",
            "country": "CN",
            "latitude": "30.97911",
            "longitude": "118.45573"
        },
        {
            "city": "Jiulian",
            "region": "01",
            "country": "CN",
            "latitude": "30.95565",
            "longitude": "118.38227"
        },
        {
            "city": "Gongshan",
            "region": "01",
            "country": "CN",
            "latitude": "30.93566",
            "longitude": "118.25048"
        },
        {
            "city": "Jiafa",
            "region": "01",
            "country": "CN",
            "latitude": "30.99301",
            "longitude": "118.25102"
        },
        {
            "city": "Chisha",
            "region": "01",
            "country": "CN",
            "latitude": "30.99023",
            "longitude": "118.13243"
        },
        {
            "city": "Zhuyang",
            "region": "01",
            "country": "CN",
            "latitude": "30.73047",
            "longitude": "118.00215"
        },
        {
            "city": "Menkoutang",
            "region": "01",
            "country": "CN",
            "latitude": "31.01408",
            "longitude": "119.43949"
        },
        {
            "city": "Dongchong",
            "region": "01",
            "country": "CN",
            "latitude": "31.02023",
            "longitude": "119.3771"
        },
        {
            "city": "Quantoushan",
            "region": "01",
            "country": "CN",
            "latitude": "31.07047",
            "longitude": "119.21424"
        },
        {
            "city": "Shuiming",
            "region": "01",
            "country": "CN",
            "latitude": "31.03333",
            "longitude": "119.15"
        },
        {
            "city": "Xinhang",
            "region": "01",
            "country": "CN",
            "latitude": "31.07306",
            "longitude": "119.55696"
        },
        {
            "city": "Doumenkou",
            "region": "01",
            "country": "CN",
            "latitude": "31.00833",
            "longitude": "118.78333"
        },
        {
            "city": "Guquan",
            "region": "01",
            "country": "CN",
            "latitude": "31.02017",
            "longitude": "118.65144"
        },
        {
            "city": "Rencunwan",
            "region": "01",
            "country": "CN",
            "latitude": "31.09167",
            "longitude": "118.75833"
        },
        {
            "city": "Huaqiao",
            "region": "01",
            "country": "CN",
            "latitude": "31.18668",
            "longitude": "118.69336"
        },
        {
            "city": "Dongqi",
            "region": "01",
            "country": "CN",
            "latitude": "31.00616",
            "longitude": "118.43285"
        },
        {
            "city": "Eshan",
            "region": "01",
            "country": "CN",
            "latitude": "31.06429",
            "longitude": "118.21579"
        },
        {
            "city": "Jingshan",
            "region": "01",
            "country": "CN",
            "latitude": "31.31342",
            "longitude": "118.44698"
        },
        {
            "city": "Xiaojiangba",
            "region": "01",
            "country": "CN",
            "latitude": "31.28495",
            "longitude": "118.06213"
        },
        {
            "city": "Shiqiao",
            "region": "01",
            "country": "CN",
            "latitude": "31.4432",
            "longitude": "118.60018"
        },
        {
            "city": "Liu\u2018an",
            "region": "01",
            "country": "CN",
            "latitude": "31.65",
            "longitude": "118.525"
        },
        {
            "city": "Niandou",
            "region": "01",
            "country": "CN",
            "latitude": "31.43333",
            "longitude": "118.45833"
        },
        {
            "city": "Guandou",
            "region": "01",
            "country": "CN",
            "latitude": "31.37739",
            "longitude": "118.38954"
        },
        {
            "city": "Longshanqiao",
            "region": "01",
            "country": "CN",
            "latitude": "31.49622",
            "longitude": "118.48122"
        },
        {
            "city": "Dongjiang Matoukou",
            "region": "01",
            "country": "CN",
            "latitude": "31.59644",
            "longitude": "118.451"
        },
        {
            "city": "Yushan",
            "region": "01",
            "country": "CN",
            "latitude": "31.67867",
            "longitude": "118.49458"
        },
        {
            "city": "Shiyang",
            "region": "01",
            "country": "CN",
            "latitude": "31.95",
            "longitude": "118.275"
        },
        {
            "city": "Erlangkou",
            "region": "01",
            "country": "CN",
            "latitude": "31.96969",
            "longitude": "118.12768"
        },
        {
            "city": "Shichuan",
            "region": "01",
            "country": "CN",
            "latitude": "29.44111",
            "longitude": "118.16639"
        },
        {
            "city": "Banqiao",
            "region": "01",
            "country": "CN",
            "latitude": "29.61278",
            "longitude": "117.94861"
        },
        {
            "city": "Shanhou",
            "region": "01",
            "country": "CN",
            "latitude": "29.66169",
            "longitude": "117.86407"
        },
        {
            "city": "Liyang",
            "region": "01",
            "country": "CN",
            "latitude": "29.7057",
            "longitude": "118.28624"
        },
        {
            "city": "Xintan",
            "region": "01",
            "country": "CN",
            "latitude": "29.7361",
            "longitude": "118.28085"
        },
        {
            "city": "Yiqi",
            "region": "01",
            "country": "CN",
            "latitude": "29.72669",
            "longitude": "118.25692"
        },
        {
            "city": "Zhengcun",
            "region": "01",
            "country": "CN",
            "latitude": "29.86032",
            "longitude": "118.37407"
        },
        {
            "city": "Chengkan",
            "region": "01",
            "country": "CN",
            "latitude": "29.92361",
            "longitude": "118.28361"
        },
        {
            "city": "Jiangtan",
            "region": "01",
            "country": "CN",
            "latitude": "29.69583",
            "longitude": "117.95833"
        },
        {
            "city": "Bingtan",
            "region": "01",
            "country": "CN",
            "latitude": "29.72258",
            "longitude": "117.91658"
        },
        {
            "city": "Xuling",
            "region": "01",
            "country": "CN",
            "latitude": "29.89235",
            "longitude": "117.72406"
        },
        {
            "city": "Bishan",
            "region": "01",
            "country": "CN",
            "latitude": "29.95423",
            "longitude": "117.90902"
        },
        {
            "city": "Datan",
            "region": "01",
            "country": "CN",
            "latitude": "29.94565",
            "longitude": "117.75102"
        },
        {
            "city": "Guxi",
            "region": "01",
            "country": "CN",
            "latitude": "29.94778",
            "longitude": "117.57634"
        },
        {
            "city": "Yangshu",
            "region": "01",
            "country": "CN",
            "latitude": "29.94554",
            "longitude": "117.50905"
        },
        {
            "city": "Longjiang",
            "region": "01",
            "country": "CN",
            "latitude": "29.9635",
            "longitude": "117.95236"
        },
        {
            "city": "Zhupu",
            "region": "01",
            "country": "CN",
            "latitude": "30.03753",
            "longitude": "118.83217"
        },
        {
            "city": "Chang\u2019an",
            "region": "01",
            "country": "CN",
            "latitude": "30.1524",
            "longitude": "118.51912"
        },
        {
            "city": "Jingzhou",
            "region": "01",
            "country": "CN",
            "latitude": "30.19281",
            "longitude": "118.86242"
        },
        {
            "city": "Banqiaotou",
            "region": "01",
            "country": "CN",
            "latitude": "30.2",
            "longitude": "118.6"
        },
        {
            "city": "Shichuan",
            "region": "01",
            "country": "CN",
            "latitude": "30.29486",
            "longitude": "118.67057"
        },
        {
            "city": "Jingqiao",
            "region": "01",
            "country": "CN",
            "latitude": "30.31462",
            "longitude": "118.58821"
        },
        {
            "city": "Huatan",
            "region": "01",
            "country": "CN",
            "latitude": "30.32891",
            "longitude": "118.5381"
        },
        {
            "city": "Daguyun",
            "region": "01",
            "country": "CN",
            "latitude": "30.061",
            "longitude": "118.42208"
        },
        {
            "city": "Huangcun",
            "region": "01",
            "country": "CN",
            "latitude": "30.01451",
            "longitude": "118.40367"
        },
        {
            "city": "Shangzhuang",
            "region": "01",
            "country": "CN",
            "latitude": "30.12441",
            "longitude": "118.43359"
        },
        {
            "city": "Gengcheng",
            "region": "01",
            "country": "CN",
            "latitude": "30.23044",
            "longitude": "118.15897"
        },
        {
            "city": "Suncun",
            "region": "01",
            "country": "CN",
            "latitude": "30.31606",
            "longitude": "118.41349"
        },
        {
            "city": "Wanjia",
            "region": "01",
            "country": "CN",
            "latitude": "30.40417",
            "longitude": "119.13333"
        },
        {
            "city": "Zhongxi",
            "region": "01",
            "country": "CN",
            "latitude": "30.48657",
            "longitude": "119.1585"
        },
        {
            "city": "Xiaxi",
            "region": "01",
            "country": "CN",
            "latitude": "30.5",
            "longitude": "118.93333"
        },
        {
            "city": "Fangtang",
            "region": "01",
            "country": "CN",
            "latitude": "30.47917",
            "longitude": "118.72917"
        },
        {
            "city": "Yunle",
            "region": "01",
            "country": "CN",
            "latitude": "30.45",
            "longitude": "118.63333"
        },
        {
            "city": "Tingxi",
            "region": "01",
            "country": "CN",
            "latitude": "30.60655",
            "longitude": "118.61032"
        },
        {
            "city": "Suhong",
            "region": "01",
            "country": "CN",
            "latitude": "30.57917",
            "longitude": "118.54583"
        },
        {
            "city": "Qinglong",
            "region": "01",
            "country": "CN",
            "latitude": "30.62083",
            "longitude": "118.9"
        },
        {
            "city": "Aimin",
            "region": "01",
            "country": "CN",
            "latitude": "30.64748",
            "longitude": "118.61724"
        },
        {
            "city": "Caijiaqiao",
            "region": "01",
            "country": "CN",
            "latitude": "30.34281",
            "longitude": "118.47014"
        },
        {
            "city": "Xinming",
            "region": "01",
            "country": "CN",
            "latitude": "30.336",
            "longitude": "118.24425"
        },
        {
            "city": "Pinghu",
            "region": "01",
            "country": "CN",
            "latitude": "30.32815",
            "longitude": "118.00544"
        },
        {
            "city": "Xinhua",
            "region": "01",
            "country": "CN",
            "latitude": "30.44823",
            "longitude": "118.0393"
        },
        {
            "city": "Xinfeng",
            "region": "01",
            "country": "CN",
            "latitude": "30.50419",
            "longitude": "118.07778"
        },
        {
            "city": "Dingjiaqiao",
            "region": "01",
            "country": "CN",
            "latitude": "30.6455",
            "longitude": "118.30842"
        },
        {
            "city": "Zhongcun",
            "region": "01",
            "country": "CN",
            "latitude": "30.61667",
            "longitude": "118.18333"
        },
        {
            "city": "Muta",
            "region": "01",
            "country": "CN",
            "latitude": "29.77592",
            "longitude": "117.04995"
        },
        {
            "city": "Makeng",
            "region": "01",
            "country": "CN",
            "latitude": "29.92468",
            "longitude": "117.08471"
        },
        {
            "city": "Huayuanli",
            "region": "01",
            "country": "CN",
            "latitude": "29.96497",
            "longitude": "117.01471"
        },
        {
            "city": "Yuele",
            "region": "15",
            "country": "CN",
            "latitude": "36.26566",
            "longitude": "107.90945"
        },
        {
            "city": "Yingge",
            "region": "26",
            "country": "CN",
            "latitude": "34.09559",
            "longitude": "107.64857"
        },
        {
            "city": "Yaxing",
            "region": "31",
            "country": "CN",
            "latitude": "19.44778",
            "longitude": "109.26273"
        },
        {
            "city": "Xianshui",
            "region": "32",
            "country": "CN",
            "latitude": "30.99145",
            "longitude": "101.12701"
        },
        {
            "city": "Lintan Chengguanzhen",
            "region": "15",
            "country": "CN",
            "latitude": "34.68885",
            "longitude": "103.35242"
        },
        {
            "city": "Hangkou",
            "region": "03",
            "country": "CN",
            "latitude": "29.04739",
            "longitude": "114.44184"
        },
        {
            "city": "Changjing",
            "region": "04",
            "country": "CN",
            "latitude": "31.75111",
            "longitude": "120.4775"
        },
        {
            "city": "Longtan",
            "region": "30",
            "country": "CN",
            "latitude": "23.71242",
            "longitude": "114.10591"
        },
        {
            "city": "Liaoyang",
            "region": "24",
            "country": "CN",
            "latitude": "37.07977",
            "longitude": "113.33986"
        },
        {
            "city": "Zunyi",
            "region": "18",
            "country": "CN",
            "latitude": "27.68667",
            "longitude": "106.90722"
        },
        {
            "city": "Zuitou",
            "region": "26",
            "country": "CN",
            "latitude": "34.06219",
            "longitude": "107.31266"
        },
        {
            "city": "Zuitai",
            "region": "15",
            "country": "CN",
            "latitude": "33.33083",
            "longitude": "105.60467"
        },
        {
            "city": "Zuhu",
            "region": "24",
            "country": "CN",
            "latitude": "39.73178",
            "longitude": "112.03088"
        },
        {
            "city": "Zu\u2019an",
            "region": "26",
            "country": "CN",
            "latitude": "34.09556",
            "longitude": "108.48444"
        },
        {
            "city": "Zoucheng",
            "region": "25",
            "country": "CN",
            "latitude": "35.40056",
            "longitude": "116.96556"
        },
        {
            "city": "Zouqiao",
            "region": "03",
            "country": "CN",
            "latitude": "29.42384",
            "longitude": "115.48539"
        },
        {
            "city": "Zouma",
            "region": "12",
            "country": "CN",
            "latitude": "29.82833",
            "longitude": "110.42306"
        },
        {
            "city": "Zongying",
            "region": "26",
            "country": "CN",
            "latitude": "33.15794",
            "longitude": "106.98042"
        },
        {
            "city": "Zongyang",
            "region": "01",
            "country": "CN",
            "latitude": "30.69889",
            "longitude": "117.20417"
        },
        {
            "city": "Zongluzui",
            "region": "12",
            "country": "CN",
            "latitude": "30.69683",
            "longitude": "115.06036"
        },
        {
            "city": "Yanjiang",
            "region": "32",
            "country": "CN",
            "latitude": "30.12108",
            "longitude": "104.64811"
        },
        {
            "city": "Zixi",
            "region": "03",
            "country": "CN",
            "latitude": "28.06949",
            "longitude": "117.784"
        },
        {
            "city": "Ziwu",
            "region": "26",
            "country": "CN",
            "latitude": "34.05805",
            "longitude": "108.89362"
        },
        {
            "city": "Wenchang",
            "region": "32",
            "country": "CN",
            "latitude": "31.63626",
            "longitude": "105.15502"
        },
        {
            "city": "Zishan",
            "region": "03",
            "country": "CN",
            "latitude": "25.95995",
            "longitude": "115.54122"
        },
        {
            "city": "Zirun",
            "region": "24",
            "country": "CN",
            "latitude": "39.30346",
            "longitude": "112.68358"
        },
        {
            "city": "Zilingpu",
            "region": "12",
            "country": "CN",
            "latitude": "31.1314",
            "longitude": "112.21816"
        },
        {
            "city": "Zicheng",
            "region": "30",
            "country": "CN",
            "latitude": "23.64442",
            "longitude": "115.1726"
        },
        {
            "city": "Zigong",
            "region": "32",
            "country": "CN",
            "latitude": "29.34162",
            "longitude": "104.77689"
        },
        {
            "city": "Zibu",
            "region": "03",
            "country": "CN",
            "latitude": "28.85332",
            "longitude": "116.86293"
        },
        {
            "city": "Zhuzuo",
            "region": "03",
            "country": "CN",
            "latitude": "26.38674",
            "longitude": "115.97978"
        },
        {
            "city": "Zhuzhoujiang Miaozuxiang",
            "region": "11",
            "country": "CN",
            "latitude": "26.67528",
            "longitude": "110.07194"
        },
        {
            "city": "Zhuzhou",
            "region": "11",
            "country": "CN",
            "latitude": "27.83333",
            "longitude": "113.15"
        },
        {
            "city": "Zhuyuan",
            "region": "29",
            "country": "CN",
            "latitude": "24.10778",
            "longitude": "103.41861"
        },
        {
            "city": "Zhuyeping",
            "region": "11",
            "country": "CN",
            "latitude": "29.47236",
            "longitude": "110.54193"
        },
        {
            "city": "Zhuyang",
            "region": "32",
            "country": "CN",
            "latitude": "30.73674",
            "longitude": "107.20116"
        },
        {
            "city": "Zhuxi Chengguanzhen",
            "region": "12",
            "country": "CN",
            "latitude": "32.32569",
            "longitude": "109.72337"
        },
        {
            "city": "Zhuwa",
            "region": "12",
            "country": "CN",
            "latitude": "30.59508",
            "longitude": "115.11656"
        },
        {
            "city": "Zhuting",
            "region": "03",
            "country": "CN",
            "latitude": "27.77601",
            "longitude": "114.07851"
        },
        {
            "city": "Zhutian",
            "region": "03",
            "country": "CN",
            "latitude": "28.75848",
            "longitude": "117.08115"
        },
        {
            "city": "Zhutan",
            "region": "03",
            "country": "CN",
            "latitude": "28.05261",
            "longitude": "114.16055"
        },
        {
            "city": "Zhushi",
            "region": "09",
            "country": "CN",
            "latitude": "33.06159",
            "longitude": "113.88882"
        },
        {
            "city": "Zhushan Chengguanzhen",
            "region": "12",
            "country": "CN",
            "latitude": "32.22179",
            "longitude": "110.23614"
        },
        {
            "city": "Jiahe Chengguanzhen",
            "region": "11",
            "country": "CN",
            "latitude": "25.55936",
            "longitude": "112.36352"
        },
        {
            "city": "Zhuqi",
            "region": "07",
            "country": "CN",
            "latitude": "26.14611",
            "longitude": "119.10194"
        },
        {
            "city": "Zhuoyang",
            "region": "07",
            "country": "CN",
            "latitude": "26.63004",
            "longitude": "119.0215"
        },
        {
            "city": "Zhuotian",
            "region": "07",
            "country": "CN",
            "latitude": "25.55823",
            "longitude": "116.27568"
        },
        {
            "city": "Zhumadian",
            "region": "09",
            "country": "CN",
            "latitude": "32.97944",
            "longitude": "114.02944"
        },
        {
            "city": "Zhulin",
            "region": "12",
            "country": "CN",
            "latitude": "30.36946",
            "longitude": "115.49161"
        },
        {
            "city": "Zhuliang",
            "region": "03",
            "country": "CN",
            "latitude": "27.46838",
            "longitude": "116.60089"
        },
        {
            "city": "Zhulan",
            "region": "03",
            "country": "CN",
            "latitude": "25.62681",
            "longitude": "115.71112"
        },
        {
            "city": "Zhukou",
            "region": "07",
            "country": "CN",
            "latitude": "26.97899",
            "longitude": "117.26048"
        },
        {
            "city": "Zhujing",
            "region": "23",
            "country": "CN",
            "latitude": "30.901",
            "longitude": "121.15966"
        },
        {
            "city": "Zhujiazhuang",
            "region": "26",
            "country": "CN",
            "latitude": "34.47236",
            "longitude": "107.7806"
        },
        {
            "city": "Zhujiang",
            "region": "03",
            "country": "CN",
            "latitude": "27.27685",
            "longitude": "114.70443"
        },
        {
            "city": "Zhujiajiao",
            "region": "23",
            "country": "CN",
            "latitude": "31.10757",
            "longitude": "121.05696"
        },
        {
            "city": "Zhuangxing",
            "region": "23",
            "country": "CN",
            "latitude": "30.85157",
            "longitude": "121.33352"
        },
        {
            "city": "Shangqiu",
            "region": "09",
            "country": "CN",
            "latitude": "34.45",
            "longitude": "115.65"
        },
        {
            "city": "Zhuji",
            "region": "02",
            "country": "CN",
            "latitude": "29.71876",
            "longitude": "120.24233"
        },
        {
            "city": "Zhuhong",
            "region": "04",
            "country": "CN",
            "latitude": "32.87883",
            "longitude": "119.98335"
        },
        {
            "city": "Zhuhang",
            "region": "04",
            "country": "CN",
            "latitude": "31.90139",
            "longitude": "120.9825"
        },
        {
            "city": "Zhouqu Chengguanzhen",
            "region": "15",
            "country": "CN",
            "latitude": "33.78417",
            "longitude": "104.36278"
        },
        {
            "city": "Zhushi",
            "region": "11",
            "country": "CN",
            "latitude": "27.08778",
            "longitude": "110.67694"
        },
        {
            "city": "Zhufeng",
            "region": "01",
            "country": "CN",
            "latitude": "30.56813",
            "longitude": "118.93642"
        },
        {
            "city": "Zhudian",
            "region": "15",
            "country": "CN",
            "latitude": "35.11567",
            "longitude": "105.9466"
        },
        {
            "city": "Zhucun",
            "region": "30",
            "country": "CN",
            "latitude": "23.2796",
            "longitude": "113.68785"
        },
        {
            "city": "Zhucheng",
            "region": "25",
            "country": "CN",
            "latitude": "35.99472",
            "longitude": "119.3975"
        },
        {
            "city": "Zhuantang",
            "region": "02",
            "country": "CN",
            "latitude": "30.1635",
            "longitude": "120.07613"
        },
        {
            "city": "Zhuanqiang",
            "region": "04",
            "country": "CN",
            "latitude": "31.26373",
            "longitude": "118.81373"
        },
        {
            "city": "Zhuangtou",
            "region": "28",
            "country": "CN",
            "latitude": "39.65778",
            "longitude": "117.29167"
        },
        {
            "city": "Zhuangtou",
            "region": "26",
            "country": "CN",
            "latitude": "34.2575",
            "longitude": "108.45167"
        },
        {
            "city": "Zhuangta",
            "region": "11",
            "country": "CN",
            "latitude": "29.62815",
            "longitude": "110.9011"
        },
        {
            "city": "Zhuangshi",
            "region": "02",
            "country": "CN",
            "latitude": "29.93306",
            "longitude": "121.60962"
        },
        {
            "city": "Zhuangqiao",
            "region": "02",
            "country": "CN",
            "latitude": "29.93",
            "longitude": "121.54833"
        },
        {
            "city": "Zhuangli",
            "region": "26",
            "country": "CN",
            "latitude": "34.81958",
            "longitude": "109.05984"
        },
        {
            "city": "Zhuanghe",
            "region": "19",
            "country": "CN",
            "latitude": "39.70083",
            "longitude": "122.99111"
        },
        {
            "city": "Zhouzhuang",
            "region": "04",
            "country": "CN",
            "latitude": "31.86539",
            "longitude": "120.41046"
        },
        {
            "city": "Zhouzhuang",
            "region": "04",
            "country": "CN",
            "latitude": "31.11614",
            "longitude": "120.8451"
        },
        {
            "city": "Zhouxin",
            "region": "30",
            "country": "CN",
            "latitude": "23.68078",
            "longitude": "113.08494"
        },
        {
            "city": "Zhouxi",
            "region": "03",
            "country": "CN",
            "latitude": "29.1859",
            "longitude": "116.38944"
        },
        {
            "city": "Zhouxiang",
            "region": "02",
            "country": "CN",
            "latitude": "30.17443",
            "longitude": "121.12769"
        },
        {
            "city": "Zhouwangmiao",
            "region": "02",
            "country": "CN",
            "latitude": "30.46367",
            "longitude": "120.50448"
        },
        {
            "city": "Zhoutou",
            "region": "01",
            "country": "CN",
            "latitude": "29.86409",
            "longitude": "116.31816"
        },
        {
            "city": "Zhoutian",
            "region": "03",
            "country": "CN",
            "latitude": "25.32882",
            "longitude": "115.72783"
        },
        {
            "city": "Zhoushi",
            "region": "04",
            "country": "CN",
            "latitude": "31.46361",
            "longitude": "120.98639"
        },
        {
            "city": "Zhouquan",
            "region": "02",
            "country": "CN",
            "latitude": "30.57926",
            "longitude": "120.34748"
        },
        {
            "city": "Zhouling",
            "region": "26",
            "country": "CN",
            "latitude": "34.40528",
            "longitude": "108.72722"
        },
        {
            "city": "Zhoukou",
            "region": "09",
            "country": "CN",
            "latitude": "33.63333",
            "longitude": "114.63333"
        },
        {
            "city": "Zhoukou",
            "region": "32",
            "country": "CN",
            "latitude": "31.03472",
            "longitude": "106.40113"
        },
        {
            "city": "Zhouhu",
            "region": "03",
            "country": "CN",
            "latitude": "27.1592",
            "longitude": "114.52026"
        },
        {
            "city": "Zhoufang",
            "region": "03",
            "country": "CN",
            "latitude": "28.52934",
            "longitude": "117.16662"
        },
        {
            "city": "Zhoucun",
            "region": "25",
            "country": "CN",
            "latitude": "36.81667",
            "longitude": "117.81667"
        },
        {
            "city": "Zhoucheng",
            "region": "26",
            "country": "CN",
            "latitude": "34.43639",
            "longitude": "108.12111"
        },
        {
            "city": "Yuxi",
            "region": "29",
            "country": "CN",
            "latitude": "24.355",
            "longitude": "102.54222"
        },
        {
            "city": "Zhongzhai",
            "region": "15",
            "country": "CN",
            "latitude": "34.64851",
            "longitude": "103.96485"
        },
        {
            "city": "Zhongzhai",
            "region": "15",
            "country": "CN",
            "latitude": "33.19133",
            "longitude": "104.42009"
        },
        {
            "city": "Zhongzhai",
            "region": "11",
            "country": "CN",
            "latitude": "27.19528",
            "longitude": "109.26861"
        },
        {
            "city": "Zhongzhai",
            "region": "03",
            "country": "CN",
            "latitude": "24.74182",
            "longitude": "114.39648"
        },
        {
            "city": "Zhongyun",
            "region": "03",
            "country": "CN",
            "latitude": "29.22126",
            "longitude": "117.68594"
        },
        {
            "city": "Zhongyuan",
            "region": "31",
            "country": "CN",
            "latitude": "19.14787",
            "longitude": "110.46759"
        },
        {
            "city": "Ningxiang",
            "region": "24",
            "country": "CN",
            "latitude": "37.34",
            "longitude": "111.20523"
        },
        {
            "city": "Zhongxinqiao",
            "region": "28",
            "country": "CN",
            "latitude": "39.03472",
            "longitude": "117.5425"
        },
        {
            "city": "Zhongxing",
            "region": "04",
            "country": "CN",
            "latitude": "33.70389",
            "longitude": "118.67917"
        },
        {
            "city": "Zhongxing",
            "region": "31",
            "country": "CN",
            "latitude": "19.56856",
            "longitude": "109.85248"
        },
        {
            "city": "Zhongxin",
            "region": "29",
            "country": "CN",
            "latitude": "26.61667",
            "longitude": "101.27154"
        },
        {
            "city": "Zhongxin",
            "region": "30",
            "country": "CN",
            "latitude": "24.21626",
            "longitude": "114.71602"
        },
        {
            "city": "Zhongxin",
            "region": "30",
            "country": "CN",
            "latitude": "23.28954",
            "longitude": "113.61356"
        },
        {
            "city": "Zhongtou",
            "region": "09",
            "country": "CN",
            "latitude": "33.98836",
            "longitude": "113.33955"
        },
        {
            "city": "Zhongtong",
            "region": "03",
            "country": "CN",
            "latitude": "28.30127",
            "longitude": "116.96811"
        },
        {
            "city": "Zhongtang",
            "region": "30",
            "country": "CN",
            "latitude": "23.09668",
            "longitude": "113.65719"
        },
        {
            "city": "Zhonghe",
            "region": "21",
            "country": "CN",
            "latitude": "36.03292",
            "longitude": "106.17384"
        },
        {
            "city": "Zhongshu",
            "region": "29",
            "country": "CN",
            "latitude": "25.0273",
            "longitude": "103.66298"
        },
        {
            "city": "Zhongshu",
            "region": "29",
            "country": "CN",
            "latitude": "24.51667",
            "longitude": "103.76667"
        },
        {
            "city": "Laocheng",
            "region": "07",
            "country": "CN",
            "latitude": "25.02737",
            "longitude": "116.03578"
        },
        {
            "city": "Zhongshan",
            "region": "16",
            "country": "CN",
            "latitude": "24.53333",
            "longitude": "111.3"
        },
        {
            "city": "Jinzhong",
            "region": "29",
            "country": "CN",
            "latitude": "26.37595",
            "longitude": "103.30639"
        },
        {
            "city": "Zhongnan",
            "region": "26",
            "country": "CN",
            "latitude": "34.14677",
            "longitude": "108.36017"
        },
        {
            "city": "Zhongming",
            "region": "01",
            "country": "CN",
            "latitude": "30.98482",
            "longitude": "118.05075"
        },
        {
            "city": "Zhongling",
            "region": "03",
            "country": "CN",
            "latitude": "28.43822",
            "longitude": "116.47784"
        },
        {
            "city": "Zhongjiapu",
            "region": "11",
            "country": "CN",
            "latitude": "29.089",
            "longitude": "111.05011"
        },
        {
            "city": "Kaijiang",
            "region": "32",
            "country": "CN",
            "latitude": "31.03959",
            "longitude": "104.67448"
        },
        {
            "city": "Zhonghuopu",
            "region": "12",
            "country": "CN",
            "latitude": "29.76034",
            "longitude": "114.00105"
        },
        {
            "city": "Zhongguan",
            "region": "02",
            "country": "CN",
            "latitude": "30.64958",
            "longitude": "120.18451"
        },
        {
            "city": "Zhongfang",
            "region": "11",
            "country": "CN",
            "latitude": "27.41139",
            "longitude": "109.93194"
        },
        {
            "city": "Zhongfang",
            "region": "07",
            "country": "CN",
            "latitude": "26.60083",
            "longitude": "119.42583"
        },
        {
            "city": "Zhongdeng",
            "region": "28",
            "country": "CN",
            "latitude": "39.59056",
            "longitude": "117.35306"
        },
        {
            "city": "Lianhuashan",
            "region": "03",
            "country": "CN",
            "latitude": "29.61852",
            "longitude": "116.99249"
        },
        {
            "city": "Zhongcun",
            "region": "03",
            "country": "CN",
            "latitude": "26.96044",
            "longitude": "115.82771"
        },
        {
            "city": "Zhongcun",
            "region": "03",
            "country": "CN",
            "latitude": "25.3578",
            "longitude": "115.83506"
        },
        {
            "city": "Zhongchao",
            "region": "18",
            "country": "CN",
            "latitude": "26.1375",
            "longitude": "109.22"
        },
        {
            "city": "Zhongbu",
            "region": "03",
            "country": "CN",
            "latitude": "28.84619",
            "longitude": "117.29633"
        },
        {
            "city": "Mingxing",
            "region": "12",
            "country": "CN",
            "latitude": "29.68033",
            "longitude": "109.27062"
        },
        {
            "city": "Zhongbao",
            "region": "07",
            "country": "CN",
            "latitude": "25.19543",
            "longitude": "116.26524"
        },
        {
            "city": "Zhongfan",
            "region": "03",
            "country": "CN",
            "latitude": "28.54038",
            "longitude": "117.3782"
        },
        {
            "city": "Zhongba",
            "region": "32",
            "country": "CN",
            "latitude": "31.77819",
            "longitude": "104.73932"
        },
        {
            "city": "Jiangyou",
            "region": "32",
            "country": "CN",
            "latitude": "31.77819",
            "longitude": "104.73932"
        },
        {
            "city": "Zhongba",
            "region": "30",
            "country": "CN",
            "latitude": "23.70731",
            "longitude": "115.34104"
        },
        {
            "city": "Zhong\u2019an",
            "region": "29",
            "country": "CN",
            "latitude": "25.66667",
            "longitude": "104.23333"
        },
        {
            "city": "Zhizhong",
            "region": "31",
            "country": "CN",
            "latitude": "18.63101",
            "longitude": "109.25994"
        },
        {
            "city": "Zhixia",
            "region": "03",
            "country": "CN",
            "latitude": "26.98199",
            "longitude": "115.11081"
        },
        {
            "city": "Zhitang",
            "region": "04",
            "country": "CN",
            "latitude": "31.61158",
            "longitude": "120.95307"
        },
        {
            "city": "Zhitan",
            "region": "03",
            "country": "CN",
            "latitude": "29.62052",
            "longitude": "117.30909"
        },
        {
            "city": "Zhili",
            "region": "02",
            "country": "CN",
            "latitude": "30.87358",
            "longitude": "120.25667"
        },
        {
            "city": "Zhijiang",
            "region": "11",
            "country": "CN",
            "latitude": "27.45814",
            "longitude": "109.6592"
        },
        {
            "city": "Zhifang",
            "region": "12",
            "country": "CN",
            "latitude": "30.35",
            "longitude": "114.31667"
        },
        {
            "city": "Zhicheng",
            "region": "02",
            "country": "CN",
            "latitude": "31.00611",
            "longitude": "119.90361"
        },
        {
            "city": "Zhicheng",
            "region": "12",
            "country": "CN",
            "latitude": "30.29556",
            "longitude": "111.50472"
        },
        {
            "city": "Zhibu",
            "region": "02",
            "country": "CN",
            "latitude": "29.82065",
            "longitude": "120.24848"
        },
        {
            "city": "Zhetian",
            "region": "03",
            "country": "CN",
            "latitude": "27.23425",
            "longitude": "114.4078"
        },
        {
            "city": "Zhetang",
            "region": "04",
            "country": "CN",
            "latitude": "31.75614",
            "longitude": "118.91552"
        },
        {
            "city": "Zhenzhushan",
            "region": "03",
            "country": "CN",
            "latitude": "29.18907",
            "longitude": "117.46124"
        },
        {
            "city": "Yizheng",
            "region": "04",
            "country": "CN",
            "latitude": "32.26917",
            "longitude": "119.17889"
        },
        {
            "city": "Zhenze",
            "region": "04",
            "country": "CN",
            "latitude": "30.91571",
            "longitude": "120.50005"
        },
        {
            "city": "Zhenyuan",
            "region": "26",
            "country": "CN",
            "latitude": "34.32502",
            "longitude": "108.19996"
        },
        {
            "city": "Wufeng",
            "region": "29",
            "country": "CN",
            "latitude": "27.45",
            "longitude": "104.83333"
        },
        {
            "city": "Zhenping Chengguanzhen",
            "region": "09",
            "country": "CN",
            "latitude": "33.03314",
            "longitude": "112.23321"
        },
        {
            "city": "Zhenjiang",
            "region": "04",
            "country": "CN",
            "latitude": "32.20917",
            "longitude": "119.43417"
        },
        {
            "city": "Zhaobaoshan",
            "region": "02",
            "country": "CN",
            "latitude": "29.9695",
            "longitude": "121.68753"
        },
        {
            "city": "Zhenhai",
            "region": "07",
            "country": "CN",
            "latitude": "24.25823",
            "longitude": "118.09049"
        },
        {
            "city": "Zhengzhou",
            "region": "09",
            "country": "CN",
            "latitude": "34.75778",
            "longitude": "113.64861"
        },
        {
            "city": "Zhengguo",
            "region": "30",
            "country": "CN",
            "latitude": "23.41823",
            "longitude": "113.88844"
        },
        {
            "city": "Zhengfang",
            "region": "03",
            "country": "CN",
            "latitude": "28.70098",
            "longitude": "117.88915"
        },
        {
            "city": "Zhengfang",
            "region": "07",
            "country": "CN",
            "latitude": "26.71343",
            "longitude": "117.7074"
        },
        {
            "city": "Zhengdun",
            "region": "07",
            "country": "CN",
            "latitude": "27.49667",
            "longitude": "118.69472"
        },
        {
            "city": "Zhengdian",
            "region": "12",
            "country": "CN",
            "latitude": "30.33333",
            "longitude": "114.25"
        },
        {
            "city": "Zhengcun",
            "region": "03",
            "country": "CN",
            "latitude": "28.95454",
            "longitude": "114.52934"
        },
        {
            "city": "Zhengang",
            "region": "03",
            "country": "CN",
            "latitude": "25.00044",
            "longitude": "115.31521"
        },
        {
            "city": "Zhendong",
            "region": "04",
            "country": "CN",
            "latitude": "34.13333",
            "longitude": "120.21667"
        },
        {
            "city": "Zhelin",
            "region": "23",
            "country": "CN",
            "latitude": "30.8325",
            "longitude": "121.46917"
        },
        {
            "city": "Zhelin",
            "region": "03",
            "country": "CN",
            "latitude": "29.23333",
            "longitude": "115.46667"
        },
        {
            "city": "Zhelin",
            "region": "30",
            "country": "CN",
            "latitude": "23.5815",
            "longitude": "117.09111"
        },
        {
            "city": "Zhelang",
            "region": "30",
            "country": "CN",
            "latitude": "22.6721",
            "longitude": "115.55795"
        },
        {
            "city": "Zhaxi",
            "region": "29",
            "country": "CN",
            "latitude": "27.85081",
            "longitude": "104.96874"
        },
        {
            "city": "Zhapu",
            "region": "02",
            "country": "CN",
            "latitude": "30.60153",
            "longitude": "121.08686"
        },
        {
            "city": "Zhaozhen",
            "region": "32",
            "country": "CN",
            "latitude": "30.8563",
            "longitude": "104.43606"
        },
        {
            "city": "Xinghua",
            "region": "04",
            "country": "CN",
            "latitude": "32.93917",
            "longitude": "119.83417"
        },
        {
            "city": "Zhaoxie",
            "region": "03",
            "country": "CN",
            "latitude": "27.16778",
            "longitude": "115.87058"
        },
        {
            "city": "Zhaoxiang",
            "region": "23",
            "country": "CN",
            "latitude": "31.15194",
            "longitude": "121.19203"
        },
        {
            "city": "Zhaoxian",
            "region": "26",
            "country": "CN",
            "latitude": "34.74983",
            "longitude": "107.62335"
        },
        {
            "city": "Zhaotong",
            "region": "29",
            "country": "CN",
            "latitude": "27.31667",
            "longitude": "103.71667"
        },
        {
            "city": "Zhaoshi",
            "region": "11",
            "country": "CN",
            "latitude": "29.23574",
            "longitude": "109.42552"
        },
        {
            "city": "Zhaoqing",
            "region": "30",
            "country": "CN",
            "latitude": "23.05116",
            "longitude": "112.45972"
        },
        {
            "city": "Zhaoping",
            "region": "16",
            "country": "CN",
            "latitude": "24.17244",
            "longitude": "110.78703"
        },
        {
            "city": "Zhaokang",
            "region": "24",
            "country": "CN",
            "latitude": "35.72053",
            "longitude": "111.24725"
        },
        {
            "city": "Zhaopeng",
            "region": "12",
            "country": "CN",
            "latitude": "31.4132",
            "longitude": "113.84859"
        },
        {
            "city": "Zhaohe",
            "region": "09",
            "country": "CN",
            "latitude": "33.18774",
            "longitude": "112.84527"
        },
        {
            "city": "Zhaoguli",
            "region": "28",
            "country": "CN",
            "latitude": "39.17833",
            "longitude": "117.24361"
        },
        {
            "city": "Zhaogezhuang",
            "region": "28",
            "country": "CN",
            "latitude": "39.78444",
            "longitude": "117.19583"
        },
        {
            "city": "Zhaogezhuang",
            "region": "10",
            "country": "CN",
            "latitude": "39.76667",
            "longitude": "118.4"
        },
        {
            "city": "Zhaozhen",
            "region": "26",
            "country": "CN",
            "latitude": "34.55722",
            "longitude": "108.49694"
        },
        {
            "city": "Zhaocun",
            "region": "09",
            "country": "CN",
            "latitude": "33.75482",
            "longitude": "112.47961"
        },
        {
            "city": "Zhaoyuan",
            "region": "25",
            "country": "CN",
            "latitude": "37.35917",
            "longitude": "120.39639"
        },
        {
            "city": "Zhaobei",
            "region": "24",
            "country": "CN",
            "latitude": "39.48444",
            "longitude": "114.03278"
        },
        {
            "city": "Xiping",
            "region": "29",
            "country": "CN",
            "latitude": "25.59784",
            "longitude": "103.79612"
        },
        {
            "city": "Zhanxi",
            "region": "03",
            "country": "CN",
            "latitude": "28.04802",
            "longitude": "115.2285"
        },
        {
            "city": "Zhantian",
            "region": "03",
            "country": "CN",
            "latitude": "26.59208",
            "longitude": "116.16107"
        },
        {
            "city": "Zhantang",
            "region": "03",
            "country": "CN",
            "latitude": "25.41615",
            "longitude": "115.79217"
        },
        {
            "city": "Zhanping",
            "region": "03",
            "country": "CN",
            "latitude": "28.02974",
            "longitude": "116.24058"
        },
        {
            "city": "Zhanjiang",
            "region": "30",
            "country": "CN",
            "latitude": "21.28145",
            "longitude": "110.34271"
        },
        {
            "city": "Zhanjiaji",
            "region": "12",
            "country": "CN",
            "latitude": "30.669",
            "longitude": "114.3518"
        },
        {
            "city": "Danzhu",
            "region": "24",
            "country": "CN",
            "latitude": "36.1245",
            "longitude": "112.86101"
        },
        {
            "city": "Zhangjiazhuang",
            "region": "24",
            "country": "CN",
            "latitude": "39.26333",
            "longitude": "112.79389"
        },
        {
            "city": "Zhangzhuang",
            "region": "03",
            "country": "CN",
            "latitude": "27.52646",
            "longitude": "114.35892"
        },
        {
            "city": "Zhangzhou",
            "region": "07",
            "country": "CN",
            "latitude": "24.51333",
            "longitude": "117.65556"
        },
        {
            "city": "Zhangzhishan",
            "region": "04",
            "country": "CN",
            "latitude": "31.9247",
            "longitude": "121.00708"
        },
        {
            "city": "Zhangzhen",
            "region": "02",
            "country": "CN",
            "latitude": "29.80931",
            "longitude": "120.86837"
        },
        {
            "city": "Zhangye",
            "region": "15",
            "country": "CN",
            "latitude": "38.93417",
            "longitude": "100.45167"
        },
        {
            "city": "Zhangyan",
            "region": "23",
            "country": "CN",
            "latitude": "30.80663",
            "longitude": "121.28008"
        },
        {
            "city": "Zhangwu",
            "region": "02",
            "country": "CN",
            "latitude": "30.77972",
            "longitude": "119.54389"
        },
        {
            "city": "Zhangwan",
            "region": "07",
            "country": "CN",
            "latitude": "26.71139",
            "longitude": "119.59194"
        },
        {
            "city": "Zhangting",
            "region": "02",
            "country": "CN",
            "latitude": "30.01528",
            "longitude": "121.28424"
        },
        {
            "city": "Zhangpu",
            "region": "04",
            "country": "CN",
            "latitude": "31.28746",
            "longitude": "120.93955"
        },
        {
            "city": "Zhangliang",
            "region": "09",
            "country": "CN",
            "latitude": "33.66949",
            "longitude": "113.04047"
        },
        {
            "city": "Zhangjin",
            "region": "12",
            "country": "CN",
            "latitude": "30.19726",
            "longitude": "112.59769"
        },
        {
            "city": "Zhangjiayuan",
            "region": "21",
            "country": "CN",
            "latitude": "36.72185",
            "longitude": "106.333"
        },
        {
            "city": "Zhangjiashan",
            "region": "03",
            "country": "CN",
            "latitude": "28.08523",
            "longitude": "115.47926"
        },
        {
            "city": "Zhangjiaqiao",
            "region": "04",
            "country": "CN",
            "latitude": "32.11593",
            "longitude": "120.05969"
        },
        {
            "city": "Zhangji",
            "region": "12",
            "country": "CN",
            "latitude": "31.5116",
            "longitude": "112.77841"
        },
        {
            "city": "Zhangjiahe",
            "region": "26",
            "country": "CN",
            "latitude": "33.4414",
            "longitude": "106.56447"
        },
        {
            "city": "Zhangfang",
            "region": "11",
            "country": "CN",
            "latitude": "28.32721",
            "longitude": "114.10302"
        },
        {
            "city": "Zhanghuban",
            "region": "07",
            "country": "CN",
            "latitude": "26.38654",
            "longitude": "118.48408"
        },
        {
            "city": "Zhanggu",
            "region": "32",
            "country": "CN",
            "latitude": "30.8695",
            "longitude": "101.88413"
        },
        {
            "city": "Zhanggang",
            "region": "12",
            "country": "CN",
            "latitude": "30.57204",
            "longitude": "112.87666"
        },
        {
            "city": "Zhangdu",
            "region": "01",
            "country": "CN",
            "latitude": "30.59637",
            "longitude": "118.22796"
        },
        {
            "city": "Zibo",
            "region": "25",
            "country": "CN",
            "latitude": "36.79056",
            "longitude": "118.06333"
        },
        {
            "city": "Zhangdian",
            "region": "04",
            "country": "CN",
            "latitude": "32.40418",
            "longitude": "120.05147"
        },
        {
            "city": "Anyang",
            "region": "09",
            "country": "CN",
            "latitude": "36.09944",
            "longitude": "114.32889"
        },
        {
            "city": "Zhangcun",
            "region": "24",
            "country": "CN",
            "latitude": "35.65011",
            "longitude": "111.34944"
        },
        {
            "city": "Zhangcheng",
            "region": "07",
            "country": "CN",
            "latitude": "25.84676",
            "longitude": "118.93692"
        },
        {
            "city": "Zhangba",
            "region": "26",
            "country": "CN",
            "latitude": "34.89654",
            "longitude": "107.6479"
        },
        {
            "city": "Zhan\u2019erxiang",
            "region": "15",
            "country": "CN",
            "latitude": "33.77986",
            "longitude": "106.30034"
        },
        {
            "city": "Zhajin",
            "region": "03",
            "country": "CN",
            "latitude": "29.00961",
            "longitude": "114.23597"
        },
        {
            "city": "Zhaishi Miaozudongzuxiang",
            "region": "11",
            "country": "CN",
            "latitude": "26.50083",
            "longitude": "110.04444"
        },
        {
            "city": "Zhaike",
            "region": "21",
            "country": "CN",
            "latitude": "36.29156",
            "longitude": "106.42337"
        },
        {
            "city": "Zhaigang",
            "region": "30",
            "country": "CN",
            "latitude": "24.5204",
            "longitude": "112.34859"
        },
        {
            "city": "Zezhang",
            "region": "24",
            "country": "CN",
            "latitude": "35.71573",
            "longitude": "111.15553"
        },
        {
            "city": "Zengtian",
            "region": "03",
            "country": "CN",
            "latitude": "27.3563",
            "longitude": "115.83897"
        },
        {
            "city": "Zengtian",
            "region": "30",
            "country": "CN",
            "latitude": "24.02032",
            "longitude": "114.98102"
        },
        {
            "city": "Zengji",
            "region": "12",
            "country": "CN",
            "latitude": "30.72028",
            "longitude": "112.36983"
        },
        {
            "city": "Zengjia",
            "region": "32",
            "country": "CN",
            "latitude": "32.61957",
            "longitude": "106.10118"
        },
        {
            "city": "Zengdian",
            "region": "12",
            "country": "CN",
            "latitude": "31.12582",
            "longitude": "113.77027"
        },
        {
            "city": "Zekou",
            "region": "12",
            "country": "CN",
            "latitude": "30.48706",
            "longitude": "112.87152"
        },
        {
            "city": "Zaozhuang",
            "region": "25",
            "country": "CN",
            "latitude": "34.86472",
            "longitude": "117.55417"
        },
        {
            "city": "Zaoyang",
            "region": "12",
            "country": "CN",
            "latitude": "32.12722",
            "longitude": "112.75417"
        },
        {
            "city": "Zaoxi",
            "region": "02",
            "country": "CN",
            "latitude": "30.2006",
            "longitude": "119.4901"
        },
        {
            "city": "Xicun",
            "region": "24",
            "country": "CN",
            "latitude": "39.15139",
            "longitude": "113.11545"
        },
        {
            "city": "Zaolin",
            "region": "26",
            "country": "CN",
            "latitude": "34.36352",
            "longitude": "107.69618"
        },
        {
            "city": "Zaojiacheng",
            "region": "28",
            "country": "CN",
            "latitude": "39.27611",
            "longitude": "117.43167"
        },
        {
            "city": "Zangzhai",
            "region": "24",
            "country": "CN",
            "latitude": "39.62953",
            "longitude": "113.11367"
        },
        {
            "city": "Zagunao",
            "region": "32",
            "country": "CN",
            "latitude": "31.44288",
            "longitude": "103.17178"
        },
        {
            "city": "Shangyuzhuang",
            "region": "24",
            "country": "CN",
            "latitude": "38.90756",
            "longitude": "112.20579"
        },
        {
            "city": "Yuyue",
            "region": "12",
            "country": "CN",
            "latitude": "30.0182",
            "longitude": "113.96325"
        },
        {
            "city": "Yuyao",
            "region": "02",
            "country": "CN",
            "latitude": "30.05",
            "longitude": "121.14944"
        },
        {
            "city": "Yuyang",
            "region": "12",
            "country": "CN",
            "latitude": "30.17375",
            "longitude": "112.90283"
        },
        {
            "city": "Yuxin",
            "region": "02",
            "country": "CN",
            "latitude": "30.66879",
            "longitude": "120.78848"
        },
        {
            "city": "Yuxin",
            "region": "12",
            "country": "CN",
            "latitude": "30.67293",
            "longitude": "112.99095"
        },
        {
            "city": "Xiushui",
            "region": "24",
            "country": "CN",
            "latitude": "38.10379",
            "longitude": "113.38865"
        },
        {
            "city": "Yuzhou",
            "region": "09",
            "country": "CN",
            "latitude": "34.16278",
            "longitude": "113.46389"
        },
        {
            "city": "Yuxia",
            "region": "26",
            "country": "CN",
            "latitude": "34.06154",
            "longitude": "108.62905"
        },
        {
            "city": "Yuxi",
            "region": "04",
            "country": "CN",
            "latitude": "32.582",
            "longitude": "119.9978"
        },
        {
            "city": "Yuwang",
            "region": "21",
            "country": "CN",
            "latitude": "36.81929",
            "longitude": "106.37767"
        },
        {
            "city": "Yuwan",
            "region": "30",
            "country": "CN",
            "latitude": "24.16407",
            "longitude": "113.66502"
        },
        {
            "city": "Yutou",
            "region": "02",
            "country": "CN",
            "latitude": "28.62149",
            "longitude": "118.50566"
        },
        {
            "city": "Yuting",
            "region": "01",
            "country": "CN",
            "latitude": "29.84038",
            "longitude": "117.96968"
        },
        {
            "city": "Jicheng",
            "region": "24",
            "country": "CN",
            "latitude": "37.06359",
            "longitude": "112.95769"
        },
        {
            "city": "Yushan",
            "region": "26",
            "country": "CN",
            "latitude": "34.20563",
            "longitude": "109.50158"
        },
        {
            "city": "Yushan",
            "region": "09",
            "country": "CN",
            "latitude": "33.19948",
            "longitude": "113.8155"
        },
        {
            "city": "Yushan",
            "region": "12",
            "country": "CN",
            "latitude": "31.98946",
            "longitude": "112.36785"
        },
        {
            "city": "Yushan",
            "region": "04",
            "country": "CN",
            "latitude": "31.37762",
            "longitude": "120.9543"
        },
        {
            "city": "Yushan",
            "region": "07",
            "country": "CN",
            "latitude": "26.90863",
            "longitude": "118.56713"
        },
        {
            "city": "Yuping",
            "region": "29",
            "country": "CN",
            "latitude": "22.97693",
            "longitude": "103.71085"
        },
        {
            "city": "Yunyang",
            "region": "26",
            "country": "CN",
            "latitude": "34.63722",
            "longitude": "108.80861"
        },
        {
            "city": "Yunyang",
            "region": "09",
            "country": "CN",
            "latitude": "33.44743",
            "longitude": "112.71422"
        },
        {
            "city": "Junyang",
            "region": "03",
            "country": "CN",
            "latitude": "28.41667",
            "longitude": "115.36667"
        },
        {
            "city": "Yunxian Chengguanzhen",
            "region": "12",
            "country": "CN",
            "latitude": "32.83129",
            "longitude": "110.80875"
        },
        {
            "city": "Aihua",
            "region": "29",
            "country": "CN",
            "latitude": "24.41667",
            "longitude": "100.1"
        },
        {
            "city": "Yunxixian Chengguanzhen",
            "region": "12",
            "country": "CN",
            "latitude": "32.98276",
            "longitude": "110.42306"
        },
        {
            "city": "Yunxi",
            "region": "32",
            "country": "CN",
            "latitude": "31.2264",
            "longitude": "105.38614"
        },
        {
            "city": "Yunxi",
            "region": "02",
            "country": "CN",
            "latitude": "29.02612",
            "longitude": "118.93969"
        },
        {
            "city": "Yunting",
            "region": "04",
            "country": "CN",
            "latitude": "31.86441",
            "longitude": "120.33727"
        },
        {
            "city": "Yunti",
            "region": "01",
            "country": "CN",
            "latitude": "30.37444",
            "longitude": "119.28222"
        },
        {
            "city": "Yuntai",
            "region": "15",
            "country": "CN",
            "latitude": "33.44634",
            "longitude": "105.66561"
        },
        {
            "city": "Yunshan",
            "region": "03",
            "country": "CN",
            "latitude": "28.17593",
            "longitude": "116.2995"
        },
        {
            "city": "Yunmenling",
            "region": "03",
            "country": "CN",
            "latitude": "25.2407",
            "longitude": "115.7444"
        },
        {
            "city": "Yunmeng Chengguanzhen",
            "region": "12",
            "country": "CN",
            "latitude": "31.06251",
            "longitude": "113.76545"
        },
        {
            "city": "Yunluo",
            "region": "30",
            "country": "CN",
            "latitude": "23.25259",
            "longitude": "116.07486"
        },
        {
            "city": "Yunlong",
            "region": "31",
            "country": "CN",
            "latitude": "19.87654",
            "longitude": "110.46706"
        },
        {
            "city": "Yunling",
            "region": "01",
            "country": "CN",
            "latitude": "30.65332",
            "longitude": "118.22409"
        },
        {
            "city": "Yunling",
            "region": "07",
            "country": "CN",
            "latitude": "23.95384",
            "longitude": "117.33604"
        },
        {
            "city": "Jinghong",
            "region": "29",
            "country": "CN",
            "latitude": "21.99102",
            "longitude": "100.73409"
        },
        {
            "city": "Pizhou",
            "region": "04",
            "country": "CN",
            "latitude": "34.31139",
            "longitude": "117.95028"
        },
        {
            "city": "Yunhe",
            "region": "29",
            "country": "CN",
            "latitude": "26.52497",
            "longitude": "100.1978"
        },
        {
            "city": "Yunfu",
            "region": "30",
            "country": "CN",
            "latitude": "22.93056",
            "longitude": "112.0373"
        },
        {
            "city": "Yuncheng",
            "region": "24",
            "country": "CN",
            "latitude": "35.02306",
            "longitude": "110.99278"
        },
        {
            "city": "Yuncao",
            "region": "01",
            "country": "CN",
            "latitude": "31.42266",
            "longitude": "118.0741"
        },
        {
            "city": "Yuling",
            "region": "24",
            "country": "CN",
            "latitude": "39.55583",
            "longitude": "112.42944"
        },
        {
            "city": "Yulin",
            "region": "26",
            "country": "CN",
            "latitude": "38.29056",
            "longitude": "109.74944"
        },
        {
            "city": "Yulin",
            "region": "16",
            "country": "CN",
            "latitude": "22.63333",
            "longitude": "110.15"
        },
        {
            "city": "Yujing",
            "region": "24",
            "country": "CN",
            "latitude": "39.67552",
            "longitude": "112.6029"
        },
        {
            "city": "Yujin",
            "region": "26",
            "country": "CN",
            "latitude": "34.51508",
            "longitude": "109.24465"
        },
        {
            "city": "Yujin",
            "region": "32",
            "country": "CN",
            "latitude": "29.20909",
            "longitude": "103.94556"
        },
        {
            "city": "Wulingyuan",
            "region": "11",
            "country": "CN",
            "latitude": "29.34936",
            "longitude": "110.54407"
        },
        {
            "city": "Yujia",
            "region": "03",
            "country": "CN",
            "latitude": "28.1744",
            "longitude": "117.02297"
        },
        {
            "city": "Yuhuangmiao",
            "region": "26",
            "country": "CN",
            "latitude": "33.72715",
            "longitude": "106.94891"
        },
        {
            "city": "Yuguzhuang",
            "region": "28",
            "country": "CN",
            "latitude": "39.64",
            "longitude": "117.35889"
        },
        {
            "city": "Yugan",
            "region": "03",
            "country": "CN",
            "latitude": "28.69563",
            "longitude": "116.68439"
        },
        {
            "city": "Yufang",
            "region": "07",
            "country": "CN",
            "latitude": "26.90219",
            "longitude": "117.25482"
        },
        {
            "city": "Yueyang",
            "region": "24",
            "country": "CN",
            "latitude": "36.2896",
            "longitude": "111.91454"
        },
        {
            "city": "Yuecheng",
            "region": "32",
            "country": "CN",
            "latitude": "28.64157",
            "longitude": "102.5087"
        },
        {
            "city": "Yuelai",
            "region": "04",
            "country": "CN",
            "latitude": "31.9357",
            "longitude": "121.43245"
        },
        {
            "city": "Jiulong",
            "region": "32",
            "country": "CN",
            "latitude": "30.53622",
            "longitude": "106.43713"
        },
        {
            "city": "Yudongzi",
            "region": "26",
            "country": "CN",
            "latitude": "33.3251",
            "longitude": "106.32253"
        },
        {
            "city": "Yudong",
            "region": "04",
            "country": "CN",
            "latitude": "32.02723",
            "longitude": "121.355"
        },
        {
            "city": "Yudong",
            "region": "33",
            "country": "CN",
            "latitude": "29.385",
            "longitude": "106.51944"
        },
        {
            "city": "Yucun",
            "region": "01",
            "country": "CN",
            "latitude": "30.34889",
            "longitude": "118.63139"
        },
        {
            "city": "Yuci",
            "region": "24",
            "country": "CN",
            "latitude": "37.68028",
            "longitude": "112.73194"
        },
        {
            "city": "Yucheng",
            "region": "25",
            "country": "CN",
            "latitude": "34.92889",
            "longitude": "116.46528"
        },
        {
            "city": "Yucheng",
            "region": "02",
            "country": "CN",
            "latitude": "30.53507",
            "longitude": "120.85229"
        },
        {
            "city": "Yuanzhou",
            "region": "30",
            "country": "CN",
            "latitude": "23.12323",
            "longitude": "113.95344"
        },
        {
            "city": "Yuantan",
            "region": "30",
            "country": "CN",
            "latitude": "23.66353",
            "longitude": "113.19588"
        },
        {
            "city": "Yuanshan",
            "region": "30",
            "country": "CN",
            "latitude": "24.37279",
            "longitude": "114.48439"
        },
        {
            "city": "Yuanren",
            "region": "26",
            "country": "CN",
            "latitude": "34.79681",
            "longitude": "109.45487"
        },
        {
            "city": "Yuanping",
            "region": "24",
            "country": "CN",
            "latitude": "38.71528",
            "longitude": "112.7575"
        },
        {
            "city": "Yuanma",
            "region": "29",
            "country": "CN",
            "latitude": "25.68197",
            "longitude": "101.872"
        },
        {
            "city": "Yuanling",
            "region": "11",
            "country": "CN",
            "latitude": "28.44861",
            "longitude": "110.40222"
        },
        {
            "city": "Yuanlin",
            "region": "12",
            "country": "CN",
            "latitude": "30.41513",
            "longitude": "112.88595"
        },
        {
            "city": "Yuankeng",
            "region": "07",
            "country": "CN",
            "latitude": "26.76134",
            "longitude": "117.71068"
        },
        {
            "city": "Yuanhua",
            "region": "02",
            "country": "CN",
            "latitude": "30.41454",
            "longitude": "120.77155"
        },
        {
            "city": "Yuanguping",
            "region": "11",
            "country": "CN",
            "latitude": "29.01583",
            "longitude": "110.72454"
        },
        {
            "city": "Yuandun",
            "region": "26",
            "country": "CN",
            "latitude": "33.02784",
            "longitude": "106.6392"
        },
        {
            "city": "Yuancheng",
            "region": "15",
            "country": "CN",
            "latitude": "36.65202",
            "longitude": "107.78957"
        },
        {
            "city": "Heyuan",
            "region": "30",
            "country": "CN",
            "latitude": "23.73333",
            "longitude": "114.68333"
        },
        {
            "city": "Yuanbuzi",
            "region": "24",
            "country": "CN",
            "latitude": "39.8222",
            "longitude": "112.53434"
        },
        {
            "city": "Yuanba",
            "region": "32",
            "country": "CN",
            "latitude": "32.32564",
            "longitude": "105.96178"
        },
        {
            "city": "Youzha",
            "region": "04",
            "country": "CN",
            "latitude": "32.01878",
            "longitude": "121.06306"
        },