{
    "country": "France",
    "code": "FR",
    "cities": [
        {
            "city": "Peyrat-le-Ch\u00e2teau",
            "region": "B1",
            "country": "FR",
            "latitude": "45.81578",
            "longitude": "1.77233"
        },
        {
            "city": "Blaye",
            "region": "97",
            "country": "FR",
            "latitude": "45.13333",
            "longitude": "-0.66667"
        },
        {
            "city": "Zuydcoote",
            "region": "B4",
            "country": "FR",
            "latitude": "51.06667",
            "longitude": "2.5"
        },
        {
            "city": "Zutkerque",
            "region": "B4",
            "country": "FR",
            "latitude": "50.85304",
            "longitude": "2.06818"
        },
        {
            "city": "Zonza",
            "region": "A5",
            "country": "FR",
            "latitude": "41.74813",
            "longitude": "9.17102"
        },
        {
            "city": "Zimmersheim",
            "region": "C1",
            "country": "FR",
            "latitude": "47.71667",
            "longitude": "7.38333"
        },
        {
            "city": "Zillisheim",
            "region": "C1",
            "country": "FR",
            "latitude": "47.68333",
            "longitude": "7.26667"
        },
        {
            "city": "Zegerscappel",
            "region": "B4",
            "country": "FR",
            "latitude": "50.88333",
            "longitude": "2.4"
        },
        {
            "city": "Yzeures-sur-Creuse",
            "region": "A3",
            "country": "FR",
            "latitude": "46.78609",
            "longitude": "0.87166"
        },
        {
            "city": "Yzeure",
            "region": "98",
            "country": "FR",
            "latitude": "46.56438",
            "longitude": "3.35495"
        },
        {
            "city": "Yzernay",
            "region": "B5",
            "country": "FR",
            "latitude": "47.01667",
            "longitude": "-0.7"
        },
        {
            "city": "Yvr\u00e9-le-P\u00f4lin",
            "region": "B5",
            "country": "FR",
            "latitude": "47.82235",
            "longitude": "0.15581"
        },
        {
            "city": "Yvrac",
            "region": "97",
            "country": "FR",
            "latitude": "44.88333",
            "longitude": "-0.46667"
        },
        {
            "city": "Yvignac-la-Tour",
            "region": "A2",
            "country": "FR",
            "latitude": "48.35",
            "longitude": "-2.18333"
        },
        {
            "city": "Yvetot",
            "region": "A7",
            "country": "FR",
            "latitude": "49.61744",
            "longitude": "0.75814"
        },
        {
            "city": "Yves",
            "region": "B7",
            "country": "FR",
            "latitude": "46.01667",
            "longitude": "-1.05"
        },
        {
            "city": "Ytrac",
            "region": "98",
            "country": "FR",
            "latitude": "44.91343",
            "longitude": "2.36295"
        },
        {
            "city": "Yssingeaux",
            "region": "98",
            "country": "FR",
            "latitude": "45.13333",
            "longitude": "4.11667"
        },
        {
            "city": "Yport",
            "region": "A7",
            "country": "FR",
            "latitude": "49.73716",
            "longitude": "0.31537"
        },
        {
            "city": "Youx",
            "region": "98",
            "country": "FR",
            "latitude": "46.13333",
            "longitude": "2.8"
        },
        {
            "city": "Ymare",
            "region": "A7",
            "country": "FR",
            "latitude": "49.3506",
            "longitude": "1.17938"
        },
        {
            "city": "Ygos-Saint-Saturnin",
            "region": "97",
            "country": "FR",
            "latitude": "43.97651",
            "longitude": "-0.7378"
        },
        {
            "city": "Yffiniac",
            "region": "A2",
            "country": "FR",
            "latitude": "48.48694",
            "longitude": "-2.67639"
        },
        {
            "city": "Y\u00e8vres",
            "region": "A3",
            "country": "FR",
            "latitude": "48.2",
            "longitude": "1.2"
        },
        {
            "city": "Yerville",
            "region": "A7",
            "country": "FR",
            "latitude": "49.6672",
            "longitude": "0.89594"
        },
        {
            "city": "Yerres",
            "region": "A8",
            "country": "FR",
            "latitude": "48.71667",
            "longitude": "2.5"
        },
        {
            "city": "Yenne",
            "region": "B9",
            "country": "FR",
            "latitude": "45.7042",
            "longitude": "5.75795"
        },
        {
            "city": "Y\u00e9bleron",
            "region": "A7",
            "country": "FR",
            "latitude": "49.63333",
            "longitude": "0.53746"
        },
        {
            "city": "Ydes",
            "region": "98",
            "country": "FR",
            "latitude": "45.33333",
            "longitude": "2.46667"
        },
        {
            "city": "Ychoux",
            "region": "97",
            "country": "FR",
            "latitude": "44.33333",
            "longitude": "-0.96667"
        },
        {
            "city": "Yainville",
            "region": "A7",
            "country": "FR",
            "latitude": "49.45371",
            "longitude": "0.8292"
        },
        {
            "city": "Xonrupt-Longemer",
            "region": "B2",
            "country": "FR",
            "latitude": "48.08333",
            "longitude": "6.91667"
        },
        {
            "city": "Xertigny",
            "region": "B2",
            "country": "FR",
            "latitude": "48.05",
            "longitude": "6.4"
        },
        {
            "city": "Woustviller",
            "region": "B2",
            "country": "FR",
            "latitude": "49.06667",
            "longitude": "7.01667"
        },
        {
            "city": "Wormhout",
            "region": "B4",
            "country": "FR",
            "latitude": "50.88333",
            "longitude": "2.46667"
        },
        {
            "city": "Wolfisheim",
            "region": "C1",
            "country": "FR",
            "latitude": "48.58723",
            "longitude": "7.66708"
        },
        {
            "city": "Wolfgantzen",
            "region": "C1",
            "country": "FR",
            "latitude": "48.02805",
            "longitude": "7.5004"
        },
        {
            "city": "Woippy",
            "region": "B2",
            "country": "FR",
            "latitude": "49.15",
            "longitude": "6.15"
        },
        {
            "city": "Woincourt",
            "region": "B6",
            "country": "FR",
            "latitude": "50.0663",
            "longitude": "1.53676"
        },
        {
            "city": "Wizernes",
            "region": "B4",
            "country": "FR",
            "latitude": "50.7117",
            "longitude": "2.24316"
        },
        {
            "city": "Wittisheim",
            "region": "C1",
            "country": "FR",
            "latitude": "48.26667",
            "longitude": "7.58333"
        },
        {
            "city": "Wittenheim",
            "region": "C1",
            "country": "FR",
            "latitude": "47.81667",
            "longitude": "7.33333"
        },
        {
            "city": "Wittelsheim",
            "region": "C1",
            "country": "FR",
            "latitude": "47.80947",
            "longitude": "7.24154"
        },
        {
            "city": "Witry-l\u00e8s-Reims",
            "region": "A4",
            "country": "FR",
            "latitude": "49.29162",
            "longitude": "4.1192"
        },
        {
            "city": "Wissous",
            "region": "A8",
            "country": "FR",
            "latitude": "48.73333",
            "longitude": "2.33333"
        },
        {
            "city": "Wissembourg",
            "region": "C1",
            "country": "FR",
            "latitude": "49.03708",
            "longitude": "7.94548"
        },
        {
            "city": "Wissant",
            "region": "B4",
            "country": "FR",
            "latitude": "50.8853",
            "longitude": "1.66263"
        },
        {
            "city": "Wisches",
            "region": "C1",
            "country": "FR",
            "latitude": "48.50881",
            "longitude": "7.26814"
        },
        {
            "city": "Wintzenheim",
            "region": "C1",
            "country": "FR",
            "latitude": "48.07269",
            "longitude": "7.29072"
        },
        {
            "city": "Winnezeele",
            "region": "B4",
            "country": "FR",
            "latitude": "50.83333",
            "longitude": "2.55"
        },
        {
            "city": "Wingles",
            "region": "B4",
            "country": "FR",
            "latitude": "50.48333",
            "longitude": "2.85"
        },
        {
            "city": "Wingersheim",
            "region": "C1",
            "country": "FR",
            "latitude": "48.72149",
            "longitude": "7.63464"
        },
        {
            "city": "Wimmenau",
            "region": "C1",
            "country": "FR",
            "latitude": "48.91667",
            "longitude": "7.41667"
        },
        {
            "city": "Wimille",
            "region": "B4",
            "country": "FR",
            "latitude": "50.76418",
            "longitude": "1.63137"
        },
        {
            "city": "Wimereux",
            "region": "B4",
            "country": "FR",
            "latitude": "50.76963",
            "longitude": "1.61139"
        },
        {
            "city": "Willerwald",
            "region": "B2",
            "country": "FR",
            "latitude": "49.02481",
            "longitude": "7.03726"
        },
        {
            "city": "Willems",
            "region": "B4",
            "country": "FR",
            "latitude": "50.63333",
            "longitude": "3.23333"
        },
        {
            "city": "Wihr-au-Val",
            "region": "C1",
            "country": "FR",
            "latitude": "48.05",
            "longitude": "7.2"
        },
        {
            "city": "Wignehies",
            "region": "B4",
            "country": "FR",
            "latitude": "50.01667",
            "longitude": "4"
        },
        {
            "city": "Wiesviller",
            "region": "B2",
            "country": "FR",
            "latitude": "49.08333",
            "longitude": "7.16667"
        },
        {
            "city": "Widensolen",
            "region": "C1",
            "country": "FR",
            "latitude": "48.06667",
            "longitude": "7.48333"
        },
        {
            "city": "Weyersheim",
            "region": "C1",
            "country": "FR",
            "latitude": "48.71667",
            "longitude": "7.8"
        },
        {
            "city": "Wettolsheim",
            "region": "C1",
            "country": "FR",
            "latitude": "48.05755",
            "longitude": "7.29844"
        },
        {
            "city": "Westhoffen",
            "region": "C1",
            "country": "FR",
            "latitude": "48.60352",
            "longitude": "7.44289"
        },
        {
            "city": "Wervicq-Sud",
            "region": "B4",
            "country": "FR",
            "latitude": "50.76667",
            "longitude": "3.05"
        },
        {
            "city": "Weitbruch",
            "region": "C1",
            "country": "FR",
            "latitude": "48.75455",
            "longitude": "7.77935"
        },
        {
            "city": "Waziers",
            "region": "B4",
            "country": "FR",
            "latitude": "50.38333",
            "longitude": "3.11667"
        },
        {
            "city": "Wavrin",
            "region": "B4",
            "country": "FR",
            "latitude": "50.56667",
            "longitude": "2.91667"
        },
        {
            "city": "Wavrechain-sous-Denain",
            "region": "B4",
            "country": "FR",
            "latitude": "50.33333",
            "longitude": "3.41667"
        },
        {
            "city": "Wavignies",
            "region": "B6",
            "country": "FR",
            "latitude": "49.54748",
            "longitude": "2.36032"
        },
        {
            "city": "Wattwiller",
            "region": "C1",
            "country": "FR",
            "latitude": "47.83649",
            "longitude": "7.17785"
        },
        {
            "city": "Wattrelos",
            "region": "B4",
            "country": "FR",
            "latitude": "50.7",
            "longitude": "3.21667"
        },
        {
            "city": "Wattignies",
            "region": "B4",
            "country": "FR",
            "latitude": "50.58333",
            "longitude": "3.05"
        },
        {
            "city": "Watten",
            "region": "B4",
            "country": "FR",
            "latitude": "50.83685",
            "longitude": "2.21346"
        },
        {
            "city": "Wassy",
            "region": "A4",
            "country": "FR",
            "latitude": "48.49811",
            "longitude": "4.94775"
        },
        {
            "city": "Wassigny",
            "region": "B6",
            "country": "FR",
            "latitude": "50.01667",
            "longitude": "3.6"
        },
        {
            "city": "Wasselonne",
            "region": "C1",
            "country": "FR",
            "latitude": "48.63333",
            "longitude": "7.45"
        },
        {
            "city": "Wasquehal",
            "region": "B4",
            "country": "FR",
            "latitude": "50.66667",
            "longitude": "3.15"
        },
        {
            "city": "Warmeriville",
            "region": "A4",
            "country": "FR",
            "latitude": "49.35",
            "longitude": "4.21667"
        },
        {
            "city": "Warluis",
            "region": "B6",
            "country": "FR",
            "latitude": "49.38874",
            "longitude": "2.1422"
        },
        {
            "city": "Warhem",
            "region": "B4",
            "country": "FR",
            "latitude": "50.98333",
            "longitude": "2.5"
        },
        {
            "city": "Wargnies-le-Grand",
            "region": "B4",
            "country": "FR",
            "latitude": "50.31667",
            "longitude": "3.65"
        },
        {
            "city": "Wardrecques",
            "region": "B4",
            "country": "FR",
            "latitude": "50.71108",
            "longitude": "2.34483"
        },
        {
            "city": "Warcq",
            "region": "A4",
            "country": "FR",
            "latitude": "49.76667",
            "longitude": "4.68333"
        },
        {
            "city": "Wangenbourg-Engenthal",
            "region": "C1",
            "country": "FR",
            "latitude": "48.61667",
            "longitude": "7.31667"
        },
        {
            "city": "Wandignies-Hamage",
            "region": "B4",
            "country": "FR",
            "latitude": "50.4",
            "longitude": "3.31667"
        },
        {
            "city": "Wambrechies",
            "region": "B4",
            "country": "FR",
            "latitude": "50.68333",
            "longitude": "3.05"
        },
        {
            "city": "Walscheid",
            "region": "B2",
            "country": "FR",
            "latitude": "48.65",
            "longitude": "7.15"
        },
        {
            "city": "Wallers",
            "region": "B4",
            "country": "FR",
            "latitude": "50.36667",
            "longitude": "3.4"
        },
        {
            "city": "Waldighofen",
            "region": "C1",
            "country": "FR",
            "latitude": "47.55",
            "longitude": "7.31667"
        },
        {
            "city": "Walbourg",
            "region": "C1",
            "country": "FR",
            "latitude": "48.88628",
            "longitude": "7.78828"
        },
        {
            "city": "Wailly",
            "region": "B4",
            "country": "FR",
            "latitude": "50.52287",
            "longitude": "2.06792"
        },
        {
            "city": "Wahagnies",
            "region": "B4",
            "country": "FR",
            "latitude": "50.48333",
            "longitude": "3.03333"
        },
        {
            "city": "Vulaines-sur-Seine",
            "region": "A8",
            "country": "FR",
            "latitude": "48.43333",
            "longitude": "2.76667"
        },
        {
            "city": "Vue",
            "region": "B5",
            "country": "FR",
            "latitude": "47.2",
            "longitude": "-1.88333"
        },
        {
            "city": "Vrigne-aux-Bois",
            "region": "A4",
            "country": "FR",
            "latitude": "49.73333",
            "longitude": "4.85"
        },
        {
            "city": "Vred",
            "region": "B4",
            "country": "FR",
            "latitude": "50.4",
            "longitude": "3.23333"
        },
        {
            "city": "Voves",
            "region": "A3",
            "country": "FR",
            "latitude": "48.26667",
            "longitude": "1.63333"
        },
        {
            "city": "Vouzon",
            "region": "A3",
            "country": "FR",
            "latitude": "47.64515",
            "longitude": "2.05609"
        },
        {
            "city": "Vouziers",
            "region": "A4",
            "country": "FR",
            "latitude": "49.4",
            "longitude": "4.7"
        },
        {
            "city": "Vouvray",
            "region": "A3",
            "country": "FR",
            "latitude": "47.41088",
            "longitude": "0.79892"
        },
        {
            "city": "Voutezac",
            "region": "B1",
            "country": "FR",
            "latitude": "45.29246",
            "longitude": "1.43714"
        },
        {
            "city": "Vourles",
            "region": "B9",
            "country": "FR",
            "latitude": "45.66667",
            "longitude": "4.78333"
        },
        {
            "city": "Vourey",
            "region": "B9",
            "country": "FR",
            "latitude": "45.31958",
            "longitude": "5.52028"
        },
        {
            "city": "Vouneuil-sur-Vienne",
            "region": "B7",
            "country": "FR",
            "latitude": "46.71793",
            "longitude": "0.53936"
        },
        {
            "city": "Vouneuil-sous-Biard",
            "region": "B7",
            "country": "FR",
            "latitude": "46.57387",
            "longitude": "0.26988"
        },
        {
            "city": "Voulx",
            "region": "A8",
            "country": "FR",
            "latitude": "48.28333",
            "longitude": "2.96667"
        },
        {
            "city": "Voulangis",
            "region": "A8",
            "country": "FR",
            "latitude": "48.85252",
            "longitude": "2.89558"
        },
        {
            "city": "Voujeaucourt",
            "region": "A6",
            "country": "FR",
            "latitude": "47.46667",
            "longitude": "6.76667"
        },
        {
            "city": "Vouill\u00e9",
            "region": "B7",
            "country": "FR",
            "latitude": "46.64011",
            "longitude": "0.16778"
        },
        {
            "city": "Vouill\u00e9",
            "region": "B7",
            "country": "FR",
            "latitude": "46.31667",
            "longitude": "-0.36667"
        },
        {
            "city": "Vougy",
            "region": "B9",
            "country": "FR",
            "latitude": "46.1",
            "longitude": "4.13333"
        },
        {
            "city": "Vougy",
            "region": "B9",
            "country": "FR",
            "latitude": "46.06667",
            "longitude": "6.5"
        },
        {
            "city": "Vorey",
            "region": "98",
            "country": "FR",
            "latitude": "45.18357",
            "longitude": "3.90992"
        },
        {
            "city": "Voreppe",
            "region": "B9",
            "country": "FR",
            "latitude": "45.29476",
            "longitude": "5.63324"
        },
        {
            "city": "Vonnas",
            "region": "B9",
            "country": "FR",
            "latitude": "46.21667",
            "longitude": "5"
        },
        {
            "city": "Volx",
            "region": "B8",
            "country": "FR",
            "latitude": "43.87383",
            "longitude": "5.8413"
        },
        {
            "city": "Volvic",
            "region": "98",
            "country": "FR",
            "latitude": "45.87196",
            "longitude": "3.03832"
        },
        {
            "city": "Volstroff",
            "region": "B2",
            "country": "FR",
            "latitude": "49.3",
            "longitude": "6.26667"
        },
        {
            "city": "Volonne",
            "region": "B8",
            "country": "FR",
            "latitude": "44.11039",
            "longitude": "6.01424"
        },
        {
            "city": "Volmerange-les-Mines",
            "region": "B2",
            "country": "FR",
            "latitude": "49.45",
            "longitude": "6.08333"
        },
        {
            "city": "Voisins-le-Bretonneux",
            "region": "A8",
            "country": "FR",
            "latitude": "48.75",
            "longitude": "2.05"
        },
        {
            "city": "Voisenon",
            "region": "A8",
            "country": "FR",
            "latitude": "48.56667",
            "longitude": "2.66667"
        },
        {
            "city": "Voiron",
            "region": "B9",
            "country": "FR",
            "latitude": "45.36395",
            "longitude": "5.59209"
        },
        {
            "city": "Voglans",
            "region": "B9",
            "country": "FR",
            "latitude": "45.63333",
            "longitude": "5.9"
        },
        {
            "city": "V\u0153uil-et-Giget",
            "region": "B7",
            "country": "FR",
            "latitude": "45.58333",
            "longitude": "0.15"
        },
        {
            "city": "Vizille",
            "region": "B9",
            "country": "FR",
            "latitude": "45.07819",
            "longitude": "5.77074"
        },
        {
            "city": "Vix",
            "region": "B5",
            "country": "FR",
            "latitude": "46.36667",
            "longitude": "-0.86667"
        },
        {
            "city": "Vivy",
            "region": "B5",
            "country": "FR",
            "latitude": "47.32648",
            "longitude": "-0.05531"
        },
        {
            "city": "Vivonne",
            "region": "B7",
            "country": "FR",
            "latitude": "46.42953",
            "longitude": "0.26443"
        },
        {
            "city": "Viviez",
            "region": "B3",
            "country": "FR",
            "latitude": "44.55678",
            "longitude": "2.21649"
        },
        {
            "city": "Viviers-l\u00e8s-Montagnes",
            "region": "B3",
            "country": "FR",
            "latitude": "43.55",
            "longitude": "2.18333"
        },
        {
            "city": "Viviers",
            "region": "B9",
            "country": "FR",
            "latitude": "44.48515",
            "longitude": "4.68721"
        },
        {
            "city": "Vivier-au-Court",
            "region": "A4",
            "country": "FR",
            "latitude": "49.73333",
            "longitude": "4.83333"
        },
        {
            "city": "Viuz-la-Chi\u00e9saz",
            "region": "B9",
            "country": "FR",
            "latitude": "45.8",
            "longitude": "6.06667"
        },
        {
            "city": "Viuz-en-Sallaz",
            "region": "B9",
            "country": "FR",
            "latitude": "46.15",
            "longitude": "6.41667"
        },
        {
            "city": "Vittel",
            "region": "B2",
            "country": "FR",
            "latitude": "48.2",
            "longitude": "5.95"
        },
        {
            "city": "Vitteaux",
            "region": "A1",
            "country": "FR",
            "latitude": "47.39732",
            "longitude": "4.5419"
        },
        {
            "city": "Vitry-sur-Seine",
            "region": "A8",
            "country": "FR",
            "latitude": "48.78333",
            "longitude": "2.4"
        },
        {
            "city": "Vitry-sur-Orne",
            "region": "B2",
            "country": "FR",
            "latitude": "49.26667",
            "longitude": "6.1"
        },
        {
            "city": "Vitry-le-Fran\u00e7ois",
            "region": "A4",
            "country": "FR",
            "latitude": "48.73333",
            "longitude": "4.58333"
        },
        {
            "city": "Vitry-en-Artois",
            "region": "B4",
            "country": "FR",
            "latitude": "50.33333",
            "longitude": "2.98333"
        },
        {
            "city": "Vitry-aux-Loges",
            "region": "A3",
            "country": "FR",
            "latitude": "47.93333",
            "longitude": "2.26667"
        },
        {
            "city": "Vitrolles",
            "region": "B8",
            "country": "FR",
            "latitude": "43.46",
            "longitude": "5.24861"
        },
        {
            "city": "Vitr\u00e9",
            "region": "A2",
            "country": "FR",
            "latitude": "48.13333",
            "longitude": "-1.2"
        },
        {
            "city": "Visan",
            "region": "B8",
            "country": "FR",
            "latitude": "44.3141",
            "longitude": "4.95202"
        },
        {
            "city": "Viry-Noureuil",
            "region": "B6",
            "country": "FR",
            "latitude": "49.63214",
            "longitude": "3.24322"
        },
        {
            "city": "Viry-Ch\u00e2tillon",
            "region": "A8",
            "country": "FR",
            "latitude": "48.66667",
            "longitude": "2.38333"
        },
        {
            "city": "Viry",
            "region": "B9",
            "country": "FR",
            "latitude": "46.11667",
            "longitude": "6.03333"
        },
        {
            "city": "Viroflay",
            "region": "A8",
            "country": "FR",
            "latitude": "48.8",
            "longitude": "2.16667"
        },
        {
            "city": "Viriville",
            "region": "B9",
            "country": "FR",
            "latitude": "45.31667",
            "longitude": "5.2"
        },
        {
            "city": "Virieu-le-Grand",
            "region": "B9",
            "country": "FR",
            "latitude": "45.85",
            "longitude": "5.65"
        },
        {
            "city": "Virieu",
            "region": "B9",
            "country": "FR",
            "latitude": "45.48399",
            "longitude": "5.475"
        },
        {
            "city": "Viriat",
            "region": "B9",
            "country": "FR",
            "latitude": "46.25484",
            "longitude": "5.21567"
        },
        {
            "city": "Virey-le-Grand",
            "region": "A1",
            "country": "FR",
            "latitude": "46.83333",
            "longitude": "4.86667"
        },
        {
            "city": "Vireux-Wallerand",
            "region": "A4",
            "country": "FR",
            "latitude": "50.08333",
            "longitude": "4.73333"
        },
        {
            "city": "Vireux-Molhain",
            "region": "A4",
            "country": "FR",
            "latitude": "50.08333",
            "longitude": "4.71667"
        },
        {
            "city": "Vire",
            "region": "99",
            "country": "FR",
            "latitude": "48.83333",
            "longitude": "-0.88333"
        },
        {
            "city": "Virazeil",
            "region": "97",
            "country": "FR",
            "latitude": "44.5",
            "longitude": "0.21667"
        },
        {
            "city": "Vion",
            "region": "B5",
            "country": "FR",
            "latitude": "47.81922",
            "longitude": "-0.23916"
        },
        {
            "city": "Viol\u00e8s",
            "region": "B8",
            "country": "FR",
            "latitude": "44.16146",
            "longitude": "4.95329"
        },
        {
            "city": "Violay",
            "region": "B9",
            "country": "FR",
            "latitude": "45.85",
            "longitude": "4.35"
        },
        {
            "city": "Violaines",
            "region": "B4",
            "country": "FR",
            "latitude": "50.53333",
            "longitude": "2.78333"
        },
        {
            "city": "Vinsobres",
            "region": "B9",
            "country": "FR",
            "latitude": "44.33315",
            "longitude": "5.06208"
        },
        {
            "city": "Vinon-sur-Verdon",
            "region": "B8",
            "country": "FR",
            "latitude": "43.72451",
            "longitude": "5.81081"
        },
        {
            "city": "Vinneuf",
            "region": "A1",
            "country": "FR",
            "latitude": "48.35",
            "longitude": "3.13333"
        },
        {
            "city": "Vineuil-Saint-Firmin",
            "region": "B6",
            "country": "FR",
            "latitude": "49.20024",
            "longitude": "2.49567"
        },
        {
            "city": "Vineuil",
            "region": "A3",
            "country": "FR",
            "latitude": "47.5838",
            "longitude": "1.37602"
        },
        {
            "city": "Vineuil",
            "region": "A3",
            "country": "FR",
            "latitude": "46.90038",
            "longitude": "1.63543"
        },
        {
            "city": "Vincey",
            "region": "B2",
            "country": "FR",
            "latitude": "48.33333",
            "longitude": "6.33333"
        },
        {
            "city": "Vincennes",
            "region": "A8",
            "country": "FR",
            "latitude": "48.85",
            "longitude": "2.43333"
        },
        {
            "city": "Vin\u00e7a",
            "region": "A9",
            "country": "FR",
            "latitude": "42.65",
            "longitude": "2.53333"
        },
        {
            "city": "Vinay",
            "region": "B9",
            "country": "FR",
            "latitude": "45.21075",
            "longitude": "5.40806"
        },
        {
            "city": "Vinassan",
            "region": "A9",
            "country": "FR",
            "latitude": "43.20443",
            "longitude": "3.07463"
        },
        {
            "city": "Vimy",
            "region": "B4",
            "country": "FR",
            "latitude": "50.36667",
            "longitude": "2.81667"
        },
        {
            "city": "Vimoutiers",
            "region": "99",
            "country": "FR",
            "latitude": "48.92772",
            "longitude": "0.19835"
        },
        {
            "city": "Vimory",
            "region": "A3",
            "country": "FR",
            "latitude": "47.95",
            "longitude": "2.68333"
        },
        {
            "city": "Vimines",
            "region": "B9",
            "country": "FR",
            "latitude": "45.55",
            "longitude": "5.86667"
        },
        {
            "city": "Villiers-sur-Orge",
            "region": "A8",
            "country": "FR",
            "latitude": "48.65",
            "longitude": "2.3"
        },
        {
            "city": "Villiers-sur-Morin",
            "region": "A8",
            "country": "FR",
            "latitude": "48.86099",
            "longitude": "2.87773"
        },
        {
            "city": "Villiers-sur-Marne",
            "region": "A8",
            "country": "FR",
            "latitude": "48.83333",
            "longitude": "2.55"
        },
        {
            "city": "Villiers-sur-Loir",
            "region": "A3",
            "country": "FR",
            "latitude": "47.8",
            "longitude": "1"
        },
        {
            "city": "Villiers-Saint-Georges",
            "region": "A8",
            "country": "FR",
            "latitude": "48.65",
            "longitude": "3.41667"
        },
        {
            "city": "Villiers-Saint-Fr\u00e9deric",
            "region": "A8",
            "country": "FR",
            "latitude": "48.81667",
            "longitude": "1.88333"
        },
        {
            "city": "Villiers-le-Morhier",
            "region": "A3",
            "country": "FR",
            "latitude": "48.61667",
            "longitude": "1.56667"
        },
        {
            "city": "Villiers-le-Bel",
            "region": "A8",
            "country": "FR",
            "latitude": "49.00875",
            "longitude": "2.39819"
        },
        {
            "city": "Villiers-le-B\u00e2cle",
            "region": "A8",
            "country": "FR",
            "latitude": "48.71667",
            "longitude": "2.11667"
        },
        {
            "city": "Villiers-en-Plaine",
            "region": "B7",
            "country": "FR",
            "latitude": "46.4",
            "longitude": "-0.53333"
        },
        {
            "city": "Villiers-en-Lieu",
            "region": "A4",
            "country": "FR",
            "latitude": "48.66667",
            "longitude": "4.9"
        },
        {
            "city": "Villi\u00e9-Morgon",
            "region": "B9",
            "country": "FR",
            "latitude": "46.16667",
            "longitude": "4.68333"
        },
        {
            "city": "Villey-Saint-\u00c9tienne",
            "region": "B2",
            "country": "FR",
            "latitude": "48.73333",
            "longitude": "5.98333"
        },
        {
            "city": "Villevocance",
            "region": "B9",
            "country": "FR",
            "latitude": "45.22659",
            "longitude": "4.59104"
        },
        {
            "city": "Villevieille",
            "region": "A9",
            "country": "FR",
            "latitude": "43.78795",
            "longitude": "4.09756"
        },
        {
            "city": "Villeveyrac",
            "region": "A9",
            "country": "FR",
            "latitude": "43.5",
            "longitude": "3.6"
        },
        {
            "city": "Villev\u00eaque",
            "region": "B5",
            "country": "FR",
            "latitude": "47.56095",
            "longitude": "-0.42383"
        },
        {
            "city": "Villevaud\u00e9",
            "region": "A8",
            "country": "FR",
            "latitude": "48.91751",
            "longitude": "2.65228"
        },
        {
            "city": "Villeurbanne",
            "region": "B9",
            "country": "FR",
            "latitude": "45.76667",
            "longitude": "4.88333"
        },
        {
            "city": "Villette-de-Vienne",
            "region": "B9",
            "country": "FR",
            "latitude": "45.58333",
            "longitude": "4.9"
        },
        {
            "city": "Villetelle",
            "region": "A9",
            "country": "FR",
            "latitude": "43.73105",
            "longitude": "4.13658"
        },
        {
            "city": "Villetaneuse",
            "region": "A8",
            "country": "FR",
            "latitude": "48.95833",
            "longitude": "2.34167"
        },
        {
            "city": "Villes-sur-Auzon",
            "region": "B8",
            "country": "FR",
            "latitude": "44.05669",
            "longitude": "5.2343"
        },
        {
            "city": "Ville-sous-la-Fert\u00e9",
            "region": "A4",
            "country": "FR",
            "latitude": "48.1206",
            "longitude": "4.78957"
        },
        {
            "city": "Ville-sous-Anjou",
            "region": "B9",
            "country": "FR",
            "latitude": "45.36667",
            "longitude": "4.85"
        },
        {
            "city": "Villerupt",
            "region": "B2",
            "country": "FR",
            "latitude": "49.46667",
            "longitude": "5.93333"
        },
        {
            "city": "Villers-sur-Mer",
            "region": "99",
            "country": "FR",
            "latitude": "49.32264",
            "longitude": "0.00027"
        },
        {
            "city": "Villers-sur-Coudun",
            "region": "B6",
            "country": "FR",
            "latitude": "49.48308",
            "longitude": "2.80457"
        },
        {
            "city": "Villers-sous-Saint-Leu",
            "region": "B6",
            "country": "FR",
            "latitude": "49.21235",
            "longitude": "2.39485"
        },
        {
            "city": "Villers-Semeuse",
            "region": "A4",
            "country": "FR",
            "latitude": "49.73333",
            "longitude": "4.75"
        },
        {
            "city": "Villers-Saint-Paul",
            "region": "B6",
            "country": "FR",
            "latitude": "49.28884",
            "longitude": "2.48968"
        },
        {
            "city": "Villers-Pol",
            "region": "B4",
            "country": "FR",
            "latitude": "50.28333",
            "longitude": "3.61667"
        },
        {
            "city": "Villers-Outr\u00e9aux",
            "region": "B4",
            "country": "FR",
            "latitude": "50.03333",
            "longitude": "3.3"
        },
        {
            "city": "Villers-l\u00e8s-Nancy",
            "region": "B2",
            "country": "FR",
            "latitude": "48.66667",
            "longitude": "6.15"
        },
        {
            "city": "Villers-le-Lac",
            "region": "A6",
            "country": "FR",
            "latitude": "47.06667",
            "longitude": "6.66667"
        },
        {
            "city": "Villers-la-Montagne",
            "region": "B2",
            "country": "FR",
            "latitude": "49.46667",
            "longitude": "5.81667"
        },
        {
            "city": "Villersexel",
            "region": "A6",
            "country": "FR",
            "latitude": "47.55",
            "longitude": "6.43333"
        },
        {
            "city": "Villers-en-Cauchies",
            "region": "B4",
            "country": "FR",
            "latitude": "50.21667",
            "longitude": "3.4"
        },
        {
            "city": "Villers-\u00c9calles",
            "region": "A7",
            "country": "FR",
            "latitude": "49.54136",
            "longitude": "0.91942"
        },
        {
            "city": "Villers-Cotter\u00eats",
            "region": "B6",
            "country": "FR",
            "latitude": "49.25311",
            "longitude": "3.09003"
        },
        {
            "city": "Villers-Bretonneux",
            "region": "B6",
            "country": "FR",
            "latitude": "49.86667",
            "longitude": "2.51667"
        },
        {
            "city": "Villers-Bocage",
            "region": "B6",
            "country": "FR",
            "latitude": "49.9981",
            "longitude": "2.31683"
        },
        {
            "city": "Villers-Bocage",
            "region": "99",
            "country": "FR",
            "latitude": "49.0796",
            "longitude": "-0.65412"
        },
        {
            "city": "Villereversure",
            "region": "B9",
            "country": "FR",
            "latitude": "46.18333",
            "longitude": "5.38333"
        },
        {
            "city": "Villerest",
            "region": "B9",
            "country": "FR",
            "latitude": "46",
            "longitude": "4.03333"
        },
        {
            "city": "Viller\u00e9al",
            "region": "97",
            "country": "FR",
            "latitude": "44.63333",
            "longitude": "0.75"
        },
        {
            "city": "Villepreux",
            "region": "A8",
            "country": "FR",
            "latitude": "48.83333",
            "longitude": "2.01667"
        },
        {
            "city": "Villepinte",
            "region": "A8",
            "country": "FR",
            "latitude": "48.96203",
            "longitude": "2.53253"
        },
        {
            "city": "Villepinte",
            "region": "A9",
            "country": "FR",
            "latitude": "43.28333",
            "longitude": "2.1"
        },
        {
            "city": "Villeparisis",
            "region": "A8",
            "country": "FR",
            "latitude": "48.94208",
            "longitude": "2.61463"
        },
        {
            "city": "Villenoy",
            "region": "A8",
            "country": "FR",
            "latitude": "48.94112",
            "longitude": "2.8602"
        },
        {
            "city": "Villenouvelle",
            "region": "B3",
            "country": "FR",
            "latitude": "43.43333",
            "longitude": "1.65"
        },
        {
            "city": "Villennes-sur-Seine",
            "region": "A8",
            "country": "FR",
            "latitude": "48.94137",
            "longitude": "1.99137"
        },
        {
            "city": "Villeneuve-Tolosane",
            "region": "B3",
            "country": "FR",
            "latitude": "43.52316",
            "longitude": "1.34102"
        },
        {
            "city": "Villeneuve-sur-Yonne",
            "region": "A1",
            "country": "FR",
            "latitude": "48.08333",
            "longitude": "3.3"
        },
        {
            "city": "Villeneuve-sur-Lot",
            "region": "97",
            "country": "FR",
            "latitude": "44.4",
            "longitude": "0.71667"
        },
        {
            "city": "Villeneuve-sur-Bellot",
            "region": "A8",
            "country": "FR",
            "latitude": "48.86203",
            "longitude": "3.34143"
        },
        {
            "city": "Villeneuve-Saint-Germain",
            "region": "B6",
            "country": "FR",
            "latitude": "49.37976",
            "longitude": "3.35952"
        },
        {
            "city": "Villeneuve-Saint-Georges",
            "region": "A8",
            "country": "FR",
            "latitude": "48.73333",
            "longitude": "2.45"
        },
        {
            "city": "Villeneuve-Loubet",
            "region": "B8",
            "country": "FR",
            "latitude": "43.66663",
            "longitude": "7.1204"
        },
        {
            "city": "Villeneuve-les-Sablons",
            "region": "B6",
            "country": "FR",
            "latitude": "49.23753",
            "longitude": "2.07782"
        },
        {
            "city": "Villeneuve-l\u00e8s-Maguelone",
            "region": "A9",
            "country": "FR",
            "latitude": "43.53333",
            "longitude": "3.86667"
        },
        {
            "city": "Villeneuve-l\u00e8s-Bouloc",
            "region": "B3",
            "country": "FR",
            "latitude": "43.76667",
            "longitude": "1.41667"
        },
        {
            "city": "Villeneuve-l\u00e8s-B\u00e9ziers",
            "region": "A9",
            "country": "FR",
            "latitude": "43.31667",
            "longitude": "3.26667"
        },
        {
            "city": "Villeneuve-l\u00e8s-Avignon",
            "region": "A9",
            "country": "FR",
            "latitude": "43.9684",
            "longitude": "4.7963"
        },
        {
            "city": "Villeneuve-le-Roi",
            "region": "A8",
            "country": "FR",
            "latitude": "48.73333",
            "longitude": "2.41667"
        },
        {
            "city": "Villeneuve-le-Comte",
            "region": "A8",
            "country": "FR",
            "latitude": "48.81413",
            "longitude": "2.82953"
        },
        {
            "city": "Villeneuve-la-Rivi\u00e8re",
            "region": "A9",
            "country": "FR",
            "latitude": "42.7",
            "longitude": "2.8"
        },
        {
            "city": "Villeneuve-la-Guyard",
            "region": "A1",
            "country": "FR",
            "latitude": "48.33333",
            "longitude": "3.06667"
        },
        {
            "city": "Villeneuve-la-Garenne",
            "region": "A8",
            "country": "FR",
            "latitude": "48.93935",
            "longitude": "2.31478"
        },
        {
            "city": "Villeneuve-la-Comptal",
            "region": "A9",
            "country": "FR",
            "latitude": "43.28333",
            "longitude": "1.93333"
        },
        {
            "city": "Villeneuve-de-Rivi\u00e8re",
            "region": "B3",
            "country": "FR",
            "latitude": "43.13333",
            "longitude": "0.66667"
        },
        {
            "city": "Villeneuve-de-Marsan",
            "region": "97",
            "country": "FR",
            "latitude": "43.9",
            "longitude": "-0.3"
        },
        {
            "city": "Villeneuve-de-la-Raho",
            "region": "A9",
            "country": "FR",
            "latitude": "42.63333",
            "longitude": "2.91667"
        },
        {
            "city": "Villeneuve-de-Berg",
            "region": "B9",
            "country": "FR",
            "latitude": "44.55732",
            "longitude": "4.50265"
        },
        {
            "city": "Villeneuve",
            "region": "B3",
            "country": "FR",
            "latitude": "44.43333",
            "longitude": "2.03333"
        },
        {
            "city": "Villeneuve",
            "region": "B9",
            "country": "FR",
            "latitude": "46.01667",
            "longitude": "4.83333"
        },
        {
            "city": "Villeneuve",
            "region": "B8",
            "country": "FR",
            "latitude": "43.89431",
            "longitude": "5.86184"
        },
        {
            "city": "Villenave-d'Ornon",
            "region": "97",
            "country": "FR",
            "latitude": "44.76667",
            "longitude": "-0.55"
        },
        {
            "city": "Villenauxe-la-Grande",
            "region": "A4",
            "country": "FR",
            "latitude": "48.58333",
            "longitude": "3.55"
        },
        {
            "city": "Villemur-sur-Tarn",
            "region": "B3",
            "country": "FR",
            "latitude": "43.86708",
            "longitude": "1.50281"
        },
        {
            "city": "Villemoustaussou",
            "region": "A9",
            "country": "FR",
            "latitude": "43.25",
            "longitude": "2.36667"
        },
        {
            "city": "Villemomble",
            "region": "A8",
            "country": "FR",
            "latitude": "48.88333",
            "longitude": "2.5"
        },
        {
            "city": "Villemolaque",
            "region": "A9",
            "country": "FR",
            "latitude": "42.58333",
            "longitude": "2.83333"
        },
        {
            "city": "Villemoisson-sur-Orge",
            "region": "A8",
            "country": "FR",
            "latitude": "48.66667",
            "longitude": "2.31667"
        },
        {
            "city": "Villemoirieu",
            "region": "B9",
            "country": "FR",
            "latitude": "45.71667",
            "longitude": "5.21667"
        },
        {
            "city": "Villemeux-sur-Eure",
            "region": "A3",
            "country": "FR",
            "latitude": "48.66667",
            "longitude": "1.46667"
        },
        {
            "city": "Villemandeur",
            "region": "A3",
            "country": "FR",
            "latitude": "47.98333",
            "longitude": "2.7"
        },
        {
            "city": "Vilallonga dels Monts",
            "region": "A9",
            "country": "FR",
            "latitude": "42.52557",
            "longitude": "2.90434"
        },
        {
            "city": "Villelongue-de-la-Salanque",
            "region": "A9",
            "country": "FR",
            "latitude": "42.73333",
            "longitude": "2.98333"
        },
        {
            "city": "Villelaure",
            "region": "B8",
            "country": "FR",
            "latitude": "43.71319",
            "longitude": "5.43072"
        },
        {
            "city": "Ville-la-Grand",
            "region": "B9",
            "country": "FR",
            "latitude": "46.203",
            "longitude": "6.2501"
        },
        {
            "city": "Villejust",
            "region": "A8",
            "country": "FR",
            "latitude": "48.68333",
            "longitude": "2.23333"
        },
        {
            "city": "Villejuif",
            "region": "A8",
            "country": "FR",
            "latitude": "48.8",
            "longitude": "2.36667"
        },
        {
            "city": "Villegouge",
            "region": "97",
            "country": "FR",
            "latitude": "44.96667",
            "longitude": "-0.3"
        },
        {
            "city": "Villegailhenc",
            "region": "A9",
            "country": "FR",
            "latitude": "43.26667",
            "longitude": "2.36667"
        },
        {
            "city": "Villefranque",
            "region": "97",
            "country": "FR",
            "latitude": "43.43333",
            "longitude": "-1.45"
        },
        {
            "city": "Villefranche-sur-Sa\u00f4ne",
            "region": "B9",
            "country": "FR",
            "latitude": "45.98333",
            "longitude": "4.71667"
        },
        {
            "city": "Villefranche-sur-Mer",
            "region": "B8",
            "country": "FR",
            "latitude": "43.7047",
            "longitude": "7.30776"
        },
        {
            "city": "Villefranche-de-Rouergue",
            "region": "B3",
            "country": "FR",
            "latitude": "44.35",
            "longitude": "2.05"
        },
        {
            "city": "Villefranche-de-Lauragais",
            "region": "B3",
            "country": "FR",
            "latitude": "43.4",
            "longitude": "1.73333"
        },
        {
            "city": "Villefranche-sur-Cher",
            "region": "A3",
            "country": "FR",
            "latitude": "47.3",
            "longitude": "1.76667"
        },
        {
            "city": "Villefontaine",
            "region": "B9",
            "country": "FR",
            "latitude": "45.61667",
            "longitude": "5.15"
        },
        {
            "city": "Villefagnan",
            "region": "B7",
            "country": "FR",
            "latitude": "46.01667",
            "longitude": "0.08333"
        },
        {
            "city": "Villed\u00f4mer",
            "region": "A3",
            "country": "FR",
            "latitude": "47.54651",
            "longitude": "0.88775"
        },
        {
            "city": "Villedieu-sur-Indre",
            "region": "A3",
            "country": "FR",
            "latitude": "46.84598",
            "longitude": "1.53975"
        },
        {
            "city": "Villedieu-les-Po\u00eales",
            "region": "99",
            "country": "FR",
            "latitude": "48.83333",
            "longitude": "-1.21667"
        },
        {
            "city": "Villedieu-la-Blou\u00e8re",
            "region": "B5",
            "country": "FR",
            "latitude": "47.15",
            "longitude": "-1.06667"
        },
        {
            "city": "Ville-d'Avray",
            "region": "A8",
            "country": "FR",
            "latitude": "48.81667",
            "longitude": "2.18333"
        },
        {
            "city": "Villecroze",
            "region": "B8",
            "country": "FR",
            "latitude": "43.58181",
            "longitude": "6.27542"
        },
        {
            "city": "Villecresnes",
            "region": "A8",
            "country": "FR",
            "latitude": "48.71667",
            "longitude": "2.53333"
        },
        {
            "city": "Villebret",
            "region": "98",
            "country": "FR",
            "latitude": "46.26667",
            "longitude": "2.63333"
        },
        {
            "city": "Villebon-sur-Yvette",
            "region": "A8",
            "country": "FR",
            "latitude": "48.7",
            "longitude": "2.25"
        },
        {
            "city": "Villebois",
            "region": "B9",
            "country": "FR",
            "latitude": "45.85",
            "longitude": "5.43333"
        },
        {
            "city": "Villeblevin",
            "region": "A1",
            "country": "FR",
            "latitude": "48.31667",
            "longitude": "3.08333"
        },
        {
            "city": "Villebernier",
            "region": "B5",
            "country": "FR",
            "latitude": "47.25374",
            "longitude": "-0.0323"
        },
        {
            "city": "Villebarou",
            "region": "A3",
            "country": "FR",
            "latitude": "47.62344",
            "longitude": "1.32252"
        },
        {
            "city": "Vill\u00e9",
            "region": "C1",
            "country": "FR",
            "latitude": "48.33333",
            "longitude": "7.3"
        },
        {
            "city": "Villaz",
            "region": "B9",
            "country": "FR",
            "latitude": "45.95",
            "longitude": "6.18333"
        },
        {
            "city": "Villaudric",
            "region": "B3",
            "country": "FR",
            "latitude": "43.83044",
            "longitude": "1.43166"
        },
        {
            "city": "Villars-les-Dombes",
            "region": "B9",
            "country": "FR",
            "latitude": "46",
            "longitude": "5.01667"
        },
        {
            "city": "Villar-Saint-Pancrace",
            "region": "B8",
            "country": "FR",
            "latitude": "44.87318",
            "longitude": "6.62669"
        },
        {
            "city": "Villars",
            "region": "B9",
            "country": "FR",
            "latitude": "45.47118",
            "longitude": "4.35447"
        },
        {
            "city": "Villargondran",
            "region": "B9",
            "country": "FR",
            "latitude": "45.26667",
            "longitude": "6.36667"
        },
        {
            "city": "Villard-de-Lans",
            "region": "B9",
            "country": "FR",
            "latitude": "45.0707",
            "longitude": "5.55281"
        },
        {
            "city": "Villard-Bonnot",
            "region": "B9",
            "country": "FR",
            "latitude": "45.24",
            "longitude": "5.89015"
        },
        {
            "city": "Villandry",
            "region": "A3",
            "country": "FR",
            "latitude": "47.34019",
            "longitude": "0.5105"
        },
        {
            "city": "Villaines-la-Juhel",
            "region": "B5",
            "country": "FR",
            "latitude": "48.34416",
            "longitude": "-0.27734"
        },
        {
            "city": "Village-Neuf",
            "region": "C1",
            "country": "FR",
            "latitude": "47.6",
            "longitude": "7.56667"
        },
        {
            "city": "Villab\u00e9",
            "region": "A8",
            "country": "FR",
            "latitude": "48.58333",
            "longitude": "2.45"
        },
        {
            "city": "Vihiers",
            "region": "B5",
            "country": "FR",
            "latitude": "47.15",
            "longitude": "-0.53333"
        },
        {
            "city": "Vigy",
            "region": "B2",
            "country": "FR",
            "latitude": "49.2",
            "longitude": "6.3"
        },
        {
            "city": "Vigny",
            "region": "A8",
            "country": "FR",
            "latitude": "49.07902",
            "longitude": "1.92806"
        },
        {
            "city": "Vignoux-sur-Barangeon",
            "region": "A3",
            "country": "FR",
            "latitude": "47.20068",
            "longitude": "2.17258"
        },
        {
            "city": "Vignot",
            "region": "B2",
            "country": "FR",
            "latitude": "48.77418",
            "longitude": "5.60904"
        },
        {
            "city": "Vignoc",
            "region": "A2",
            "country": "FR",
            "latitude": "48.25",
            "longitude": "-1.78333"
        },
        {
            "city": "Vigneux-sur-Seine",
            "region": "A8",
            "country": "FR",
            "latitude": "48.7",
            "longitude": "2.41667"
        },
        {
            "city": "Vigneux-de-Bretagne",
            "region": "B5",
            "country": "FR",
            "latitude": "47.31667",
            "longitude": "-1.73333"
        },
        {
            "city": "Vigneulles-l\u00e8s-Hattonch\u00e2tel",
            "region": "B2",
            "country": "FR",
            "latitude": "48.98333",
            "longitude": "5.71667"
        },
        {
            "city": "Vignale",
            "region": "A5",
            "country": "FR",
            "latitude": "42.47045",
            "longitude": "9.32598"
        },
        {
            "city": "Vignacourt",
            "region": "B6",
            "country": "FR",
            "latitude": "50.01236",
            "longitude": "2.19743"
        },
        {
            "city": "Vigeois",
            "region": "B1",
            "country": "FR",
            "latitude": "45.38014",
            "longitude": "1.51635"
        },
        {
            "city": "Vif",
            "region": "B9",
            "country": "FR",
            "latitude": "45.05436",
            "longitude": "5.67757"
        },
        {
            "city": "Vieux-Thann",
            "region": "C1",
            "country": "FR",
            "latitude": "47.8",
            "longitude": "7.13333"
        },
        {
            "city": "Le Vieux-March\u00e9",
            "region": "A2",
            "country": "FR",
            "latitude": "48.6",
            "longitude": "-3.45"
        },
        {
            "city": "Vieux-Cond\u00e9",
            "region": "B4",
            "country": "FR",
            "latitude": "50.45",
            "longitude": "3.56667"
        },
        {
            "city": "Vieux-Charmont",
            "region": "A6",
            "country": "FR",
            "latitude": "47.51667",
            "longitude": "6.83333"
        },
        {
            "city": "Vieux-Boucau-les-Bains",
            "region": "97",
            "country": "FR",
            "latitude": "43.78333",
            "longitude": "-1.4"
        },
        {
            "city": "Vieux-Berquin",
            "region": "B4",
            "country": "FR",
            "latitude": "50.7",
            "longitude": "2.63333"
        },
        {
            "city": "Viesly",
            "region": "B4",
            "country": "FR",
            "latitude": "50.15",
            "longitude": "3.46667"
        },
        {
            "city": "Vierzon",
            "region": "A3",
            "country": "FR",
            "latitude": "47.21667",
            "longitude": "2.08333"
        },
        {
            "city": "Vienne-en-Val",
            "region": "A3",
            "country": "FR",
            "latitude": "47.8",
            "longitude": "2.13333"
        },
        {
            "city": "Vienne",
            "region": "B9",
            "country": "FR",
            "latitude": "45.51667",
            "longitude": "4.86667"
        },
        {
            "city": "Viennay",
            "region": "B7",
            "country": "FR",
            "latitude": "46.68333",
            "longitude": "-0.25"
        },
        {
            "city": "Vielmur-sur-Agout",
            "region": "B3",
            "country": "FR",
            "latitude": "43.61667",
            "longitude": "2.1"
        },
        {
            "city": "Vielle-Saint-Girons",
            "region": "97",
            "country": "FR",
            "latitude": "43.95",
            "longitude": "-1.3"
        },
        {
            "city": "Vieillevigne",
            "region": "B5",
            "country": "FR",
            "latitude": "46.96667",
            "longitude": "-1.43333"
        },
        {
            "city": "Vieille-Toulouse",
            "region": "B3",
            "country": "FR",
            "latitude": "43.52366",
            "longitude": "1.4423"
        },
        {
            "city": "Vieille-\u00c9glise",
            "region": "B4",
            "country": "FR",
            "latitude": "50.92823",
            "longitude": "2.07671"
        },
        {
            "city": "Vieille-Brioude",
            "region": "98",
            "country": "FR",
            "latitude": "45.26648",
            "longitude": "3.40272"
        },
        {
            "city": "Vidauban",
            "region": "B8",
            "country": "FR",
            "latitude": "43.4278",
            "longitude": "6.4329"
        },
        {
            "city": "Vic-sur-Seille",
            "region": "B2",
            "country": "FR",
            "latitude": "48.78333",
            "longitude": "6.53333"
        },
        {
            "city": "Vic-sur-C\u00e8re",
            "region": "98",
            "country": "FR",
            "latitude": "44.97929",
            "longitude": "2.62485"
        },
        {
            "city": "Vic-sur-Aisne",
            "region": "B6",
            "country": "FR",
            "latitude": "49.40609",
            "longitude": "3.11222"
        },
        {
            "city": "Vicq-sur-Breuilh",
            "region": "B1",
            "country": "FR",
            "latitude": "45.64661",
            "longitude": "1.38179"
        },
        {
            "city": "Vicq",
            "region": "B4",
            "country": "FR",
            "latitude": "50.41667",
            "longitude": "3.6"
        },
        {
            "city": "Vic-le-Comte",
            "region": "98",
            "country": "FR",
            "latitude": "45.64317",
            "longitude": "3.24638"
        },
        {
            "city": "Vic-la-Gardiole",
            "region": "A9",
            "country": "FR",
            "latitude": "43.4908",
            "longitude": "3.7975"
        },
        {
            "city": "Vichy",
            "region": "98",
            "country": "FR",
            "latitude": "46.11667",
            "longitude": "3.41667"
        },
        {
            "city": "Vic-Fezensac",
            "region": "B3",
            "country": "FR",
            "latitude": "43.76667",
            "longitude": "0.3"
        },
        {
            "city": "Vic-en-Bigorre",
            "region": "B3",
            "country": "FR",
            "latitude": "43.38333",
            "longitude": "0.05"
        },
        {
            "city": "Vibraye",
            "region": "B5",
            "country": "FR",
            "latitude": "48.05607",
            "longitude": "0.74171"
        },
        {
            "city": "Vias",
            "region": "A9",
            "country": "FR",
            "latitude": "43.3",
            "longitude": "3.41667"
        },
        {
            "city": "Viarmes",
            "region": "A8",
            "country": "FR",
            "latitude": "49.13082",
            "longitude": "2.37074"
        },
        {
            "city": "Vianne",
            "region": "97",
            "country": "FR",
            "latitude": "44.2",
            "longitude": "0.31667"
        },
        {
            "city": "Vezins",
            "region": "B5",
            "country": "FR",
            "latitude": "47.11667",
            "longitude": "-0.71667"
        },
        {
            "city": "Vezin-le-Coquet",
            "region": "A2",
            "country": "FR",
            "latitude": "48.11667",
            "longitude": "-1.75"
        },
        {
            "city": "V\u00e9z\u00e9nobres",
            "region": "A9",
            "country": "FR",
            "latitude": "44.0513",
            "longitude": "4.13775"
        },
        {
            "city": "V\u00e9zelise",
            "region": "B2",
            "country": "FR",
            "latitude": "48.48333",
            "longitude": "6.08333"
        },
        {
            "city": "Veyrier-du-Lac",
            "region": "B9",
            "country": "FR",
            "latitude": "45.88333",
            "longitude": "6.16667"
        },
        {
            "city": "Veyre-Monton",
            "region": "98",
            "country": "FR",
            "latitude": "45.66866",
            "longitude": "3.17144"
        },
        {
            "city": "Veyras",
            "region": "B9",
            "country": "FR",
            "latitude": "44.73518",
            "longitude": "4.56254"
        },
        {
            "city": "Veyrac",
            "region": "B1",
            "country": "FR",
            "latitude": "45.89521",
            "longitude": "1.105"
        },
        {
            "city": "Veynes",
            "region": "B8",
            "country": "FR",
            "latitude": "44.53333",
            "longitude": "5.81667"
        },
        {
            "city": "Veurey-Voroize",
            "region": "B9",
            "country": "FR",
            "latitude": "45.27307",
            "longitude": "5.61319"
        },
        {
            "city": "V\u00e9traz-Monthoux",
            "region": "B9",
            "country": "FR",
            "latitude": "46.1743",
            "longitude": "6.25852"
        },
        {
            "city": "Vestric-et-Candiac",
            "region": "A9",
            "country": "FR",
            "latitude": "43.74062",
            "longitude": "4.25914"
        },
        {
            "city": "Vesseaux",
            "region": "B9",
            "country": "FR",
            "latitude": "44.65136",
            "longitude": "4.44259"
        },
        {
            "city": "Vesoul",
            "region": "A6",
            "country": "FR",
            "latitude": "47.63333",
            "longitude": "6.16667"
        },
        {
            "city": "Vescovato",
            "region": "A5",
            "country": "FR",
            "latitude": "42.49278",
            "longitude": "9.43916"
        },
        {
            "city": "Verzy",
            "region": "A4",
            "country": "FR",
            "latitude": "49.15",
            "longitude": "4.16667"
        },
        {
            "city": "Verzenay",
            "region": "A4",
            "country": "FR",
            "latitude": "49.15918",
            "longitude": "4.14543"
        },
        {
            "city": "Vervins",
            "region": "B6",
            "country": "FR",
            "latitude": "49.83333",
            "longitude": "3.9"
        },
        {
            "city": "Vertus",
            "region": "A4",
            "country": "FR",
            "latitude": "48.90609",
            "longitude": "4.00216"
        },
        {
            "city": "Vert-Saint-Denis",
            "region": "A8",
            "country": "FR",
            "latitude": "48.56667",
            "longitude": "2.61667"
        },
        {
            "city": "Vertou",
            "region": "B5",
            "country": "FR",
            "latitude": "47.16667",
            "longitude": "-1.48333"
        },
        {
            "city": "Verton",
            "region": "B4",
            "country": "FR",
            "latitude": "50.40234",
            "longitude": "1.64766"
        },
        {
            "city": "Vert-le-Petit",
            "region": "A8",
            "country": "FR",
            "latitude": "48.55",
            "longitude": "2.36667"
        },
        {
            "city": "Vert-le-Grand",
            "region": "A8",
            "country": "FR",
            "latitude": "48.56667",
            "longitude": "2.36667"
        },
        {
            "city": "Vertheuil",
            "region": "97",
            "country": "FR",
            "latitude": "45.25",
            "longitude": "-0.83333"
        },
        {
            "city": "Vert-en-Drouais",
            "region": "A3",
            "country": "FR",
            "latitude": "48.76667",
            "longitude": "1.3"
        },
        {
            "city": "Vertaizon",
            "region": "98",
            "country": "FR",
            "latitude": "45.76667",
            "longitude": "3.3"
        },
        {
            "city": "Ver-sur-Mer",
            "region": "99",
            "country": "FR",
            "latitude": "49.32987",
            "longitude": "-0.53118"
        },
        {
            "city": "Ver-sur-Launette",
            "region": "B6",
            "country": "FR",
            "latitude": "49.10495",
            "longitude": "2.68409"
        },
        {
            "city": "Versonnex",
            "region": "B9",
            "country": "FR",
            "latitude": "45.93333",
            "longitude": "5.93333"
        },
        {
            "city": "Verson",
            "region": "99",
            "country": "FR",
            "latitude": "49.15432",
            "longitude": "-0.45628"
        },
        {
            "city": "Versailles",
            "region": "A8",
            "country": "FR",
            "latitude": "48.8",
            "longitude": "2.13333"
        },
        {
            "city": "Verri\u00e8res-le-Buisson",
            "region": "A8",
            "country": "FR",
            "latitude": "48.75",
            "longitude": "2.26667"
        },
        {
            "city": "Verri\u00e8res",
            "region": "A4",
            "country": "FR",
            "latitude": "48.23333",
            "longitude": "4.15"
        },
        {
            "city": "Verquin",
            "region": "B4",
            "country": "FR",
            "latitude": "50.5",
            "longitude": "2.63333"
        },
        {
            "city": "V\u00e9ron",
            "region": "A1",
            "country": "FR",
            "latitude": "48.13333",
            "longitude": "3.3"
        },
        {
            "city": "Verny",
            "region": "B2",
            "country": "FR",
            "latitude": "49.01667",
            "longitude": "6.2"
        },
        {
            "city": "Vern-sur-Seiche",
            "region": "A2",
            "country": "FR",
            "latitude": "48.05",
            "longitude": "-1.6"
        },
        {
            "city": "Vernoux-en-Vivarais",
            "region": "B9",
            "country": "FR",
            "latitude": "44.89563",
            "longitude": "4.64643"
        },
        {
            "city": "Vernou-la-Celle-sur-Seine",
            "region": "A8",
            "country": "FR",
            "latitude": "48.38789",
            "longitude": "2.84718"
        },
        {
            "city": "Vernou-sur-Brenne",
            "region": "A3",
            "country": "FR",
            "latitude": "47.41936",
            "longitude": "0.84758"
        },
        {
            "city": "Vernouillet",
            "region": "A8",
            "country": "FR",
            "latitude": "48.97146",
            "longitude": "1.98082"
        },
        {
            "city": "Vernouillet",
            "region": "A3",
            "country": "FR",
            "latitude": "48.71667",
            "longitude": "1.36667"
        },
        {
            "city": "Vernosc-l\u00e8s-Annonay",
            "region": "B9",
            "country": "FR",
            "latitude": "45.21667",
            "longitude": "4.71667"
        },
        {
            "city": "Vernon",
            "region": "A7",
            "country": "FR",
            "latitude": "49.09292",
            "longitude": "1.46332"
        },
        {
            "city": "Vernoil-le-Fourrier",
            "region": "B5",
            "country": "FR",
            "latitude": "47.38333",
            "longitude": "0.08333"
        },
        {
            "city": "Vernioz",
            "region": "B9",
            "country": "FR",
            "latitude": "45.43333",
            "longitude": "4.88333"
        },
        {
            "city": "Verniolle",
            "region": "B3",
            "country": "FR",
            "latitude": "43.08333",
            "longitude": "1.63333"
        },
        {
            "city": "Verneuil-sur-Vienne",
            "region": "B1",
            "country": "FR",
            "latitude": "45.85524",
            "longitude": "1.10133"
        },
        {
            "city": "Verneuil-sur-Seine",
            "region": "A8",
            "country": "FR",
            "latitude": "48.97388",
            "longitude": "1.9648"
        },
        {
            "city": "Verneuil-sur-Avre",
            "region": "A7",
            "country": "FR",
            "latitude": "48.73333",
            "longitude": "0.93333"
        },
        {
            "city": "Verneuil-en-Halatte",
            "region": "B6",
            "country": "FR",
            "latitude": "49.27914",
            "longitude": "2.5241"
        },
        {
            "city": "Vernet-les-Bains",
            "region": "A9",
            "country": "FR",
            "latitude": "42.55",
            "longitude": "2.38333"
        },
        {
            "city": "Vern\u00e8gues",
            "region": "B8",
            "country": "FR",
            "latitude": "43.68575",
            "longitude": "5.17156"
        },
        {
            "city": "Vernantes",
            "region": "B5",
            "country": "FR",
            "latitude": "47.3932",
            "longitude": "0.05304"
        },
        {
            "city": "Vernaison",
            "region": "B9",
            "country": "FR",
            "latitude": "45.65",
            "longitude": "4.81667"
        },
        {
            "city": "Vermenton",
            "region": "A1",
            "country": "FR",
            "latitude": "47.66667",
            "longitude": "3.73333"
        },
        {
            "city": "Vermelles",
            "region": "B4",
            "country": "FR",
            "latitude": "50.48333",
            "longitude": "2.73333"
        },
        {
            "city": "Vermand",
            "region": "B6",
            "country": "FR",
            "latitude": "49.86667",
            "longitude": "3.15"
        },
        {
            "city": "Verlinghem",
            "region": "B4",
            "country": "FR",
            "latitude": "50.68333",
            "longitude": "3"
        },
        {
            "city": "V\u00e9rines",
            "region": "B7",
            "country": "FR",
            "latitude": "46.2",
            "longitude": "-0.96667"
        },
        {
            "city": "Vergt",
            "region": "97",
            "country": "FR",
            "latitude": "45.01667",
            "longitude": "0.71667"
        },
        {
            "city": "Vergongheon",
            "region": "98",
            "country": "FR",
            "latitude": "45.37058",
            "longitude": "3.31915"
        },
        {
            "city": "Vergigny",
            "region": "A1",
            "country": "FR",
            "latitude": "47.96667",
            "longitude": "3.71667"
        },
        {
            "city": "Verg\u00e8ze",
            "region": "A9",
            "country": "FR",
            "latitude": "43.74404",
            "longitude": "4.22109"
        },
        {
            "city": "Verfeil",
            "region": "B3",
            "country": "FR",
            "latitude": "43.65781",
            "longitude": "1.6634"
        },
        {
            "city": "V\u00e9retz",
            "region": "A3",
            "country": "FR",
            "latitude": "47.35706",
            "longitude": "0.80575"
        },
        {
            "city": "Verdun",
            "region": "B2",
            "country": "FR",
            "latitude": "49.16667",
            "longitude": "5.38333"
        },
        {
            "city": "Verdun-sur-le-Doubs",
            "region": "A1",
            "country": "FR",
            "latitude": "46.89692",
            "longitude": "5.02127"
        },
        {
            "city": "Verdun-sur-Garonne",
            "region": "B3",
            "country": "FR",
            "latitude": "43.85446",
            "longitude": "1.23425"
        },
        {
            "city": "Vercel-Villedieu-le-Camp",
            "region": "A6",
            "country": "FR",
            "latitude": "47.18333",
            "longitude": "6.4"
        },
        {
            "city": "Verberie",
            "region": "B6",
            "country": "FR",
            "latitude": "49.31115",
            "longitude": "2.7321"
        },
        {
            "city": "Ventiseri",
            "region": "A5",
            "country": "FR",
            "latitude": "41.93333",
            "longitude": "9.33333"
        },
        {
            "city": "Ventabren",
            "region": "B8",
            "country": "FR",
            "latitude": "43.53847",
            "longitude": "5.29541"
        },
        {
            "city": "Venoy",
            "region": "A1",
            "country": "FR",
            "latitude": "47.8",
            "longitude": "3.63333"
        },
        {
            "city": "Vennecy",
            "region": "A3",
            "country": "FR",
            "latitude": "47.95",
            "longitude": "2.05"
        },
        {
            "city": "Venizel",
            "region": "B6",
            "country": "FR",
            "latitude": "49.36583",
            "longitude": "3.39321"
        },
        {
            "city": "V\u00e9nissieux",
            "region": "B9",
            "country": "FR",
            "latitude": "45.68333",
            "longitude": "4.88333"
        },
        {
            "city": "Veneux-les-Sablons",
            "region": "A8",
            "country": "FR",
            "latitude": "48.37872",
            "longitude": "2.79499"
        },
        {
            "city": "Venette",
            "region": "B6",
            "country": "FR",
            "latitude": "49.41705",
            "longitude": "2.80317"
        },
        {
            "city": "Venerque",
            "region": "B3",
            "country": "FR",
            "latitude": "43.43333",
            "longitude": "1.45"
        },
        {
            "city": "Venelles",
            "region": "B8",
            "country": "FR",
            "latitude": "43.59839",
            "longitude": "5.4853"
        },
        {
            "city": "V\u00e9n\u00e9jan",
            "region": "A9",
            "country": "FR",
            "latitude": "44.19729",
            "longitude": "4.65422"
        },
        {
            "city": "Vendres",
            "region": "A9",
            "country": "FR",
            "latitude": "43.26667",
            "longitude": "3.21667"
        },
        {
            "city": "Vendrennes",
            "region": "B5",
            "country": "FR",
            "latitude": "46.81667",
            "longitude": "-1.11667"
        },
        {
            "city": "Vend\u00f4me",
            "region": "A3",
            "country": "FR",
            "latitude": "47.8",
            "longitude": "1.06667"
        },
        {
            "city": "Vend\u0153uvres",
            "region": "A3",
            "country": "FR",
            "latitude": "46.8",
            "longitude": "1.35"
        },
        {
            "city": "Vendin-le-Vieil",
            "region": "B4",
            "country": "FR",
            "latitude": "50.46667",
            "longitude": "2.86667"
        },
        {
            "city": "Vendin-l\u00e8s-B\u00e9thune",
            "region": "B4",
            "country": "FR",
            "latitude": "50.53333",
            "longitude": "2.61667"
        },
        {
            "city": "Vendeville",
            "region": "B4",
            "country": "FR",
            "latitude": "50.56667",
            "longitude": "3.06667"
        },
        {
            "city": "Vendeuvre-sur-Barse",
            "region": "A4",
            "country": "FR",
            "latitude": "48.23333",
            "longitude": "4.46667"
        },
        {
            "city": "Vendeuvre-du-Poitou",
            "region": "B7",
            "country": "FR",
            "latitude": "46.73579",
            "longitude": "0.30996"
        },
        {
            "city": "Vendenheim",
            "region": "C1",
            "country": "FR",
            "latitude": "48.66948",
            "longitude": "7.70983"
        },
        {
            "city": "Vendegies-sur-\u00c9caillon",
            "region": "B4",
            "country": "FR",
            "latitude": "50.26667",
            "longitude": "3.51667"
        },
        {
            "city": "Vendat",
            "region": "98",
            "country": "FR",
            "latitude": "46.15",
            "longitude": "3.35"
        },
        {
            "city": "Vendargues",
            "region": "A9",
            "country": "FR",
            "latitude": "43.65833",
            "longitude": "3.97"
        },
        {
            "city": "Vence",
            "region": "B8",
            "country": "FR",
            "latitude": "43.72162",
            "longitude": "7.11232"
        },
        {
            "city": "Venasque",
            "region": "B8",
            "country": "FR",
            "latitude": "43.99214",
            "longitude": "5.14895"
        },
        {
            "city": "Venarey-les-Laumes",
            "region": "A1",
            "country": "FR",
            "latitude": "47.54202",
            "longitude": "4.46022"
        },
        {
            "city": "Venansault",
            "region": "B5",
            "country": "FR",
            "latitude": "46.68333",
            "longitude": "-1.51667"
        },
        {
            "city": "V\u00e9mars",
            "region": "A8",
            "country": "FR",
            "latitude": "49.06942",
            "longitude": "2.56643"
        },
        {
            "city": "Velleron",
            "region": "B8",
            "country": "FR",
            "latitude": "43.95759",
            "longitude": "5.02879"
        },
        {
            "city": "V\u00e9lizy-Villacoublay",
            "region": "A8",
            "country": "FR",
            "latitude": "48.8",
            "longitude": "2.18333"
        },
        {
            "city": "V\u00e9lines",
            "region": "97",
            "country": "FR",
            "latitude": "44.85",
            "longitude": "0.11667"
        },
        {
            "city": "Velaux",
            "region": "B8",
            "country": "FR",
            "latitude": "43.52839",
            "longitude": "5.25661"
        },
        {
            "city": "Velars-sur-Ouche",
            "region": "A1",
            "country": "FR",
            "latitude": "47.3196",
            "longitude": "4.90594"
        },
        {
            "city": "Velaines",
            "region": "B2",
            "country": "FR",
            "latitude": "48.7",
            "longitude": "5.3"
        },
        {
            "city": "Velaine-en-Haye",
            "region": "B2",
            "country": "FR",
            "latitude": "48.7",
            "longitude": "6.01667"
        },
        {
            "city": "Veigy-Foncenex",
            "region": "B9",
            "country": "FR",
            "latitude": "46.26667",
            "longitude": "6.25"
        },
        {
            "city": "Veign\u00e9",
            "region": "A3",
            "country": "FR",
            "latitude": "47.28556",
            "longitude": "0.74079"
        },
        {
            "city": "Ved\u00e8ne",
            "region": "B8",
            "country": "FR",
            "latitude": "43.97744",
            "longitude": "4.90428"
        },
        {
            "city": "Vecoux",
            "region": "B2",
            "country": "FR",
            "latitude": "47.98333",
            "longitude": "6.63333"
        },
        {
            "city": "Veauche",
            "region": "B9",
            "country": "FR",
            "latitude": "45.56294",
            "longitude": "4.29031"
        },
        {
            "city": "Vayres",
            "region": "97",
            "country": "FR",
            "latitude": "44.9",
            "longitude": "-0.31667"
        },
        {
            "city": "Vayrac",
            "region": "B3",
            "country": "FR",
            "latitude": "44.95337",
            "longitude": "1.70358"
        },
        {
            "city": "Vay",
            "region": "B5",
            "country": "FR",
            "latitude": "47.55",
            "longitude": "-1.7"
        },
        {
            "city": "Vaux-sur-Seine",
            "region": "A8",
            "country": "FR",
            "latitude": "49.01271",
            "longitude": "1.96942"
        },
        {
            "city": "Vaux-sur-Mer",
            "region": "B7",
            "country": "FR",
            "latitude": "45.65",
            "longitude": "-1.03333"
        },
        {
            "city": "Vaux-le-P\u00e9nil",
            "region": "A8",
            "country": "FR",
            "latitude": "48.53333",
            "longitude": "2.66667"
        },
        {
            "city": "Vaux-en-Bugey",
            "region": "B9",
            "country": "FR",
            "latitude": "45.91667",
            "longitude": "5.35"
        },
        {
            "city": "Vauvert",
            "region": "A9",
            "country": "FR",
            "latitude": "43.69529",
            "longitude": "4.27705"
        },
        {
            "city": "Vaur\u00e9al",
            "region": "A8",
            "country": "FR",
            "latitude": "49.03333",
            "longitude": "2.03333"
        },
        {
            "city": "Vaumoise",
            "region": "B6",
            "country": "FR",
            "latitude": "49.23525",
            "longitude": "2.98077"
        },
        {
            "city": "Vaulx-Vraucourt",
            "region": "B4",
            "country": "FR",
            "latitude": "50.13333",
            "longitude": "2.91667"
        },
        {
            "city": "Vaulx-Milieu",
            "region": "B9",
            "country": "FR",
            "latitude": "45.61667",
            "longitude": "5.18333"
        },
        {
            "city": "Vaulx-en-Velin",
            "region": "B9",
            "country": "FR",
            "latitude": "45.78333",
            "longitude": "4.93333"
        },
        {
            "city": "Vaulnaveys-le-Haut",
            "region": "B9",
            "country": "FR",
            "latitude": "45.11696",
            "longitude": "5.81257"
        },
        {
            "city": "Vaulnaveys-le-Bas",
            "region": "B9",
            "country": "FR",
            "latitude": "45.1002",
            "longitude": "5.82532"
        },
        {
            "city": "Vaujours",
            "region": "A8",
            "country": "FR",
            "latitude": "48.93022",
            "longitude": "2.5711"
        },
        {
            "city": "Vauhallan",
            "region": "A8",
            "country": "FR",
            "latitude": "48.73333",
            "longitude": "2.2"
        },
        {
            "city": "Vaugrigneuse",
            "region": "A8",
            "country": "FR",
            "latitude": "48.6",
            "longitude": "2.11667"
        },
        {
            "city": "Vaugneray",
            "region": "B9",
            "country": "FR",
            "latitude": "45.73333",
            "longitude": "4.65"
        },
        {
            "city": "Vaudry",
            "region": "99",
            "country": "FR",
            "latitude": "48.83333",
            "longitude": "-0.85"
        },
        {
            "city": "Vaudelnay",
            "region": "B5",
            "country": "FR",
            "latitude": "47.13812",
            "longitude": "-0.20677"
        },
        {
            "city": "Vaucresson",
            "region": "A8",
            "country": "FR",
            "latitude": "48.83333",
            "longitude": "2.16667"
        },
        {
            "city": "Vaucouleurs",
            "region": "B2",
            "country": "FR",
            "latitude": "48.6",
            "longitude": "5.66667"
        },
        {
            "city": "Vauchr\u00e9tien",
            "region": "B5",
            "country": "FR",
            "latitude": "47.33234",
            "longitude": "-0.47678"
        },
        {
            "city": "Vatan",
            "region": "A3",
            "country": "FR",
            "latitude": "47.07447",
            "longitude": "1.8101"
        },
        {
            "city": "Vassy",
            "region": "99",
            "country": "FR",
            "latitude": "48.85",
            "longitude": "-0.66667"
        },
        {
            "city": "Vasselay",
            "region": "A3",
            "country": "FR",
            "latitude": "47.15686",
            "longitude": "2.38963"
        },
        {
            "city": "Vasles",
            "region": "B7",
            "country": "FR",
            "latitude": "46.57618",
            "longitude": "-0.02638"
        },
        {
            "city": "Varzy",
            "region": "A1",
            "country": "FR",
            "latitude": "47.3581",
            "longitude": "3.38619"
        },
        {
            "city": "Vars",
            "region": "B7",
            "country": "FR",
            "latitude": "45.76667",
            "longitude": "0.11667"
        },
        {
            "city": "Varreddes",
            "region": "A8",
            "country": "FR",
            "latitude": "49.00305",
            "longitude": "2.92788"
        },
        {
            "city": "Varrains",
            "region": "B5",
            "country": "FR",
            "latitude": "47.22305",
            "longitude": "-0.06033"
        },
        {
            "city": "Varois-et-Chaignot",
            "region": "A1",
            "country": "FR",
            "latitude": "47.35058",
            "longitude": "5.12838"
        },
        {
            "city": "Varilhes",
            "region": "B3",
            "country": "FR",
            "latitude": "43.05",
            "longitude": "1.63333"
        },
        {
            "city": "Varetz",
            "region": "B1",
            "country": "FR",
            "latitude": "45.1939",
            "longitude": "1.45121"
        },
        {
            "city": "Varennes-sur-Seine",
            "region": "A8",
            "country": "FR",
            "latitude": "48.36667",
            "longitude": "2.91667"
        },
        {
            "city": "Varennes-sur-Loire",
            "region": "B5",
            "country": "FR",
            "latitude": "47.23767",
            "longitude": "0.0535"
        },
        {
            "city": "Varennes-sur-Allier",
            "region": "98",
            "country": "FR",
            "latitude": "46.31667",
            "longitude": "3.4"
        },
        {
            "city": "Varennes-Saint-Sauveur",
            "region": "A1",
            "country": "FR",
            "latitude": "46.48333",
            "longitude": "5.25"
        },
        {
            "city": "Varennes-le-Grand",
            "region": "A1",
            "country": "FR",
            "latitude": "46.71667",
            "longitude": "4.88333"
        },
        {
            "city": "Varennes-Jarcy",
            "region": "A8",
            "country": "FR",
            "latitude": "48.68333",
            "longitude": "2.55"
        },
        {
            "city": "Varengeville-sur-Mer",
            "region": "A7",
            "country": "FR",
            "latitude": "49.90475",
            "longitude": "0.9948"
        },
        {
            "city": "Varang\u00e9ville",
            "region": "B2",
            "country": "FR",
            "latitude": "48.63333",
            "longitude": "6.31667"
        },
        {
            "city": "Varades",
            "region": "B5",
            "country": "FR",
            "latitude": "47.38333",
            "longitude": "-1.03333"
        },
        {
            "city": "Vanves",
            "region": "A8",
            "country": "FR",
            "latitude": "48.83333",
            "longitude": "2.3"
        },
        {
            "city": "Vannes",
            "region": "A2",
            "country": "FR",
            "latitude": "47.66667",
            "longitude": "-2.75"
        },
        {
            "city": "Vand\u0153uvre-l\u00e8s-Nancy",
            "region": "B2",
            "country": "FR",
            "latitude": "48.65",
            "longitude": "6.18333"
        },
        {
            "city": "Vals-pr\u00e8s-le-Puy",
            "region": "98",
            "country": "FR",
            "latitude": "45.03155",
            "longitude": "3.87787"
        },
        {
            "city": "Vals-les-Bains",
            "region": "B9",
            "country": "FR",
            "latitude": "44.66387",
            "longitude": "4.36861"
        },
        {
            "city": "Valros",
            "region": "A9",
            "country": "FR",
            "latitude": "43.41667",
            "longitude": "3.36667"
        },
        {
            "city": "Valr\u00e9as",
            "region": "B8",
            "country": "FR",
            "latitude": "44.38366",
            "longitude": "4.99084"
        },
        {
            "city": "Valras-Plage",
            "region": "A9",
            "country": "FR",
            "latitude": "43.24808",
            "longitude": "3.29032"
        },
        {
            "city": "Valognes",
            "region": "99",
            "country": "FR",
            "latitude": "49.51667",
            "longitude": "-1.46667"
        },
        {
            "city": "Valmont",
            "region": "B2",
            "country": "FR",
            "latitude": "49.08333",
            "longitude": "6.7"
        },
        {
            "city": "Valmondois",
            "region": "A8",
            "country": "FR",
            "latitude": "49.0973",
            "longitude": "2.18996"
        },
        {
            "city": "Vallon-en-Sully",
            "region": "98",
            "country": "FR",
            "latitude": "46.53676",
            "longitude": "2.60828"
        },
        {
            "city": "Valloire",
            "region": "B9",
            "country": "FR",
            "latitude": "45.16565",
            "longitude": "6.42994"
        },
        {
            "city": "Valliquerville",
            "region": "A7",
            "country": "FR",
            "latitude": "49.61385",
            "longitude": "0.68703"
        },
        {
            "city": "Valli\u00e8res",
            "region": "B9",
            "country": "FR",
            "latitude": "45.9",
            "longitude": "5.93333"
        },
        {
            "city": "Vallet",
            "region": "B5",
            "country": "FR",
            "latitude": "47.16667",
            "longitude": "-1.26667"
        },
        {
            "city": "Valleroy",
            "region": "B2",
            "country": "FR",
            "latitude": "49.2",
            "longitude": "5.91667"
        },
        {
            "city": "Valleraugue",
            "region": "A9",
            "country": "FR",
            "latitude": "44.0813",
            "longitude": "3.64154"
        },
        {
            "city": "Valleiry",
            "region": "B9",
            "country": "FR",
            "latitude": "46.11667",
            "longitude": "5.96667"
        },
        {
            "city": "Vallauris",
            "region": "B8",
            "country": "FR",
            "latitude": "43.57803",
            "longitude": "7.05451"
        },
        {
            "city": "Vallabr\u00e8gues",
            "region": "A9",
            "country": "FR",
            "latitude": "43.85307",
            "longitude": "4.62662"
        },
        {
            "city": "Valframbert",
            "region": "99",
            "country": "FR",
            "latitude": "48.46465",
            "longitude": "0.10828"
        },
        {
            "city": "Valfin-l\u00e8s-Saint-Claude",
            "region": "A6",
            "country": "FR",
            "latitude": "46.43333",
            "longitude": "5.85"
        },
        {
            "city": "Valff",
            "region": "C1",
            "country": "FR",
            "latitude": "48.41667",
            "longitude": "7.51667"
        },
        {
            "city": "Valergues",
            "region": "A9",
            "country": "FR",
            "latitude": "43.66824",
            "longitude": "4.06124"
        },
        {
            "city": "Valenton",
            "region": "A8",
            "country": "FR",
            "latitude": "48.75",
            "longitude": "2.46667"
        },
        {
            "city": "Valentigney",
            "region": "A6",
            "country": "FR",
            "latitude": "47.46667",
            "longitude": "6.83333"
        },
        {
            "city": "Valensole",
            "region": "B8",
            "country": "FR",
            "latitude": "43.83799",
            "longitude": "5.98323"
        },
        {
            "city": "Valencin",
            "region": "B9",
            "country": "FR",
            "latitude": "45.61667",
            "longitude": "5.01667"
        },
        {
            "city": "Valenciennes",
            "region": "B4",
            "country": "FR",
            "latitude": "50.35",
            "longitude": "3.53333"
        },
        {
            "city": "Valence-sur-Ba\u00efse",
            "region": "B3",
            "country": "FR",
            "latitude": "43.88333",
            "longitude": "0.38333"
        },
        {
            "city": "Valence",
            "region": "B9",
            "country": "FR",
            "latitude": "44.93333",
            "longitude": "4.9"
        },
        {
            "city": "Valence",
            "region": "B3",
            "country": "FR",
            "latitude": "44.10823",
            "longitude": "0.89101"
        },