{
    "country": "Mexico",
    "code": "MX",
    "cities": [
        {
            "city": "Cuauht\u00e9moc",
            "region": "28",
            "country": "MX",
            "latitude": "22.53333",
            "longitude": "-98.15"
        },
        {
            "city": "Xicot\u00e9ncatl",
            "region": "28",
            "country": "MX",
            "latitude": "23.01667",
            "longitude": "-98.88333"
        },
        {
            "city": "San Fernando",
            "region": "28",
            "country": "MX",
            "latitude": "24.85",
            "longitude": "-98.15"
        },
        {
            "city": "Gustavo D\u00edaz Ordaz",
            "region": "28",
            "country": "MX",
            "latitude": "26.23333",
            "longitude": "-98.58333"
        },
        {
            "city": "Zumpango de Ocampo",
            "region": "15",
            "country": "MX",
            "latitude": "19.79778",
            "longitude": "-99.10167"
        },
        {
            "city": "Zumpango del R\u00edo",
            "region": "12",
            "country": "MX",
            "latitude": "17.65",
            "longitude": "-99.5"
        },
        {
            "city": "Zumpahuac\u00e1n",
            "region": "15",
            "country": "MX",
            "latitude": "18.9",
            "longitude": "-99.55"
        },
        {
            "city": "Zozocolco de Hidalgo",
            "region": "30",
            "country": "MX",
            "latitude": "20.15",
            "longitude": "-97.58333"
        },
        {
            "city": "Zongozotla",
            "region": "21",
            "country": "MX",
            "latitude": "19.98333",
            "longitude": "-97.73333"
        },
        {
            "city": "Zongolica",
            "region": "30",
            "country": "MX",
            "latitude": "18.66667",
            "longitude": "-96.98333"
        },
        {
            "city": "Zolotepec",
            "region": "15",
            "country": "MX",
            "latitude": "19.41583",
            "longitude": "-99.49444"
        },
        {
            "city": "Zitlala",
            "region": "12",
            "country": "MX",
            "latitude": "17.63333",
            "longitude": "-99.08333"
        },
        {
            "city": "Zinacant\u00e1n",
            "region": "05",
            "country": "MX",
            "latitude": "16.75",
            "longitude": "-92.7"
        },
        {
            "city": "Zimatl\u00e1n de \u00c1lvarez",
            "region": "20",
            "country": "MX",
            "latitude": "16.86667",
            "longitude": "-96.78333"
        },
        {
            "city": "Zimap\u00e1n",
            "region": "13",
            "country": "MX",
            "latitude": "20.75",
            "longitude": "-99.35"
        },
        {
            "city": "Zempoala",
            "region": "13",
            "country": "MX",
            "latitude": "19.91667",
            "longitude": "-98.66667"
        },
        {
            "city": "Zempoala",
            "region": "30",
            "country": "MX",
            "latitude": "19.45",
            "longitude": "-96.41667"
        },
        {
            "city": "Zaragoza",
            "region": "30",
            "country": "MX",
            "latitude": "21.28333",
            "longitude": "-97.71667"
        },
        {
            "city": "Zaragoza",
            "region": "21",
            "country": "MX",
            "latitude": "19.76667",
            "longitude": "-97.55"
        },
        {
            "city": "Zaragoza de Guadalupe",
            "region": "15",
            "country": "MX",
            "latitude": "19.14583",
            "longitude": "-99.64722"
        },
        {
            "city": "Zapotl\u00e1n de Ju\u00e1rez",
            "region": "13",
            "country": "MX",
            "latitude": "19.96667",
            "longitude": "-98.85"
        },
        {
            "city": "Zacualtip\u00e1n",
            "region": "13",
            "country": "MX",
            "latitude": "20.65",
            "longitude": "-98.6"
        },
        {
            "city": "Zacualpan",
            "region": "15",
            "country": "MX",
            "latitude": "18.71667",
            "longitude": "-99.78333"
        },
        {
            "city": "Zacatl\u00e1n",
            "region": "21",
            "country": "MX",
            "latitude": "19.93333",
            "longitude": "-97.96667"
        },
        {
            "city": "Zacatepec",
            "region": "21",
            "country": "MX",
            "latitude": "19.26667",
            "longitude": "-97.53333"
        },
        {
            "city": "Zacatepec",
            "region": "17",
            "country": "MX",
            "latitude": "18.65",
            "longitude": "-99.2"
        },
        {
            "city": "Zacapoaxtla",
            "region": "21",
            "country": "MX",
            "latitude": "19.88333",
            "longitude": "-97.58333"
        },
        {
            "city": "Yehualtepec",
            "region": "21",
            "country": "MX",
            "latitude": "18.78333",
            "longitude": "-97.65"
        },
        {
            "city": "Yecuatla",
            "region": "30",
            "country": "MX",
            "latitude": "19.86667",
            "longitude": "-96.75"
        },
        {
            "city": "Yecapixtla",
            "region": "17",
            "country": "MX",
            "latitude": "18.88333",
            "longitude": "-98.86667"
        },
        {
            "city": "Yautepec",
            "region": "17",
            "country": "MX",
            "latitude": "18.88188",
            "longitude": "-99.06715"
        },
        {
            "city": "Yaon\u00e1huac",
            "region": "21",
            "country": "MX",
            "latitude": "19.86667",
            "longitude": "-97.45"
        },
        {
            "city": "Yanga",
            "region": "30",
            "country": "MX",
            "latitude": "18.83333",
            "longitude": "-96.8"
        },
        {
            "city": "Yajal\u00f3n",
            "region": "05",
            "country": "MX",
            "latitude": "17.23333",
            "longitude": "-92.33333"
        },
        {
            "city": "Xoxocotla",
            "region": "17",
            "country": "MX",
            "latitude": "18.68333",
            "longitude": "-99.25"
        },
        {
            "city": "Xonacatl\u00e1n",
            "region": "15",
            "country": "MX",
            "latitude": "19.40222",
            "longitude": "-99.5325"
        },
        {
            "city": "Xometla",
            "region": "15",
            "country": "MX",
            "latitude": "19.65",
            "longitude": "-98.88333"
        },
        {
            "city": "Xocotla",
            "region": "30",
            "country": "MX",
            "latitude": "19.03333",
            "longitude": "-97.1"
        },
        {
            "city": "Xochitl\u00e1n",
            "region": "21",
            "country": "MX",
            "latitude": "18.7",
            "longitude": "-97.78333"
        },
        {
            "city": "Xochitepec",
            "region": "17",
            "country": "MX",
            "latitude": "18.78333",
            "longitude": "-99.23333"
        },
        {
            "city": "Xochistlahuaca",
            "region": "12",
            "country": "MX",
            "latitude": "16.78333",
            "longitude": "-98.25"
        },
        {
            "city": "Xochimilco",
            "region": "09",
            "country": "MX",
            "latitude": "19.26222",
            "longitude": "-99.1075"
        },
        {
            "city": "Xochihuehuetl\u00e1n",
            "region": "12",
            "country": "MX",
            "latitude": "17.91667",
            "longitude": "-98.43333"
        },
        {
            "city": "Xilitla",
            "region": "24",
            "country": "MX",
            "latitude": "21.33333",
            "longitude": "-98.96667"
        },
        {
            "city": "Xicotepec de Ju\u00e1rez",
            "region": "21",
            "country": "MX",
            "latitude": "20.3",
            "longitude": "-97.96667"
        },
        {
            "city": "Xico",
            "region": "30",
            "country": "MX",
            "latitude": "19.41667",
            "longitude": "-97"
        },
        {
            "city": "Xico",
            "region": "15",
            "country": "MX",
            "latitude": "19.26667",
            "longitude": "-98.93333"
        },
        {
            "city": "Xaltianguis",
            "region": "12",
            "country": "MX",
            "latitude": "17.06667",
            "longitude": "-99.83333"
        },
        {
            "city": "Xaltepec",
            "region": "21",
            "country": "MX",
            "latitude": "18.86667",
            "longitude": "-97.6"
        },
        {
            "city": "Xalpatlahuac",
            "region": "12",
            "country": "MX",
            "latitude": "17.46667",
            "longitude": "-98.61667"
        },
        {
            "city": "Xalmimilulco",
            "region": "21",
            "country": "MX",
            "latitude": "19.21667",
            "longitude": "-98.38333"
        },
        {
            "city": "Vista Hermosa",
            "region": "15",
            "country": "MX",
            "latitude": "19.51667",
            "longitude": "-99.21667"
        },
        {
            "city": "Villa Victoria",
            "region": "15",
            "country": "MX",
            "latitude": "19.44194",
            "longitude": "-99.99861"
        },
        {
            "city": "Alvaro Obreg\u00f3n",
            "region": "09",
            "country": "MX",
            "latitude": "19.37333",
            "longitude": "-99.225"
        },
        {
            "city": "Villahermosa",
            "region": "27",
            "country": "MX",
            "latitude": "17.98333",
            "longitude": "-92.91667"
        },
        {
            "city": "Gustavo A. Madero",
            "region": "09",
            "country": "MX",
            "latitude": "19.47861",
            "longitude": "-99.09583"
        },
        {
            "city": "Villa Guerrero",
            "region": "15",
            "country": "MX",
            "latitude": "18.86667",
            "longitude": "-99.65"
        },
        {
            "city": "Villa el Triunfo",
            "region": "27",
            "country": "MX",
            "latitude": "17.91667",
            "longitude": "-91.16667"
        },
        {
            "city": "Villa Cuauht\u00e9moc",
            "region": "30",
            "country": "MX",
            "latitude": "22.18333",
            "longitude": "-97.83333"
        },
        {
            "city": "Villa Cuauht\u00e9moc",
            "region": "15",
            "country": "MX",
            "latitude": "19.41528",
            "longitude": "-99.56167"
        },
        {
            "city": "Villa Corzo",
            "region": "05",
            "country": "MX",
            "latitude": "16.16667",
            "longitude": "-93.25"
        },
        {
            "city": "Villa Comaltitl\u00e1n",
            "region": "05",
            "country": "MX",
            "latitude": "15.21667",
            "longitude": "-92.58333"
        },
        {
            "city": "Villa Azueta",
            "region": "30",
            "country": "MX",
            "latitude": "18.13333",
            "longitude": "-95.66667"
        },
        {
            "city": "Veracruz",
            "region": "30",
            "country": "MX",
            "latitude": "19.2",
            "longitude": "-96.13333"
        },
        {
            "city": "Venustiano Carranza",
            "region": "05",
            "country": "MX",
            "latitude": "16.35",
            "longitude": "-92.55"
        },
        {
            "city": "Veinte de Noviembre",
            "region": "05",
            "country": "MX",
            "latitude": "14.98333",
            "longitude": "-92.25"
        },
        {
            "city": "Vega de Alatorre",
            "region": "30",
            "country": "MX",
            "latitude": "20.03333",
            "longitude": "-96.63333"
        },
        {
            "city": "Valle Hermoso",
            "region": "28",
            "country": "MX",
            "latitude": "25.66667",
            "longitude": "-97.83333"
        },
        {
            "city": "Valladolid",
            "region": "31",
            "country": "MX",
            "latitude": "20.68812",
            "longitude": "-88.19936"
        },
        {
            "city": "Ursulo Galv\u00e1n",
            "region": "30",
            "country": "MX",
            "latitude": "19.4",
            "longitude": "-96.35"
        },
        {
            "city": "Uni\u00f3n Hidalgo",
            "region": "20",
            "country": "MX",
            "latitude": "16.4723",
            "longitude": "-94.82952"
        },
        {
            "city": "Um\u00e1n",
            "region": "31",
            "country": "MX",
            "latitude": "20.88333",
            "longitude": "-89.75"
        },
        {
            "city": "Tzucacab",
            "region": "31",
            "country": "MX",
            "latitude": "20.06667",
            "longitude": "-89.05"
        },
        {
            "city": "Tzimol",
            "region": "05",
            "country": "MX",
            "latitude": "16.26667",
            "longitude": "-92.26667"
        },
        {
            "city": "Tuzamapan",
            "region": "30",
            "country": "MX",
            "latitude": "19.4",
            "longitude": "-96.85"
        },
        {
            "city": "Tuxtla Guti\u00e9rrez",
            "region": "05",
            "country": "MX",
            "latitude": "16.75",
            "longitude": "-93.11667"
        },
        {
            "city": "Tuxtla Chico",
            "region": "05",
            "country": "MX",
            "latitude": "14.95",
            "longitude": "-92.16667"
        },
        {
            "city": "Tuxpan de Rodr\u00edguez Cano",
            "region": "30",
            "country": "MX",
            "latitude": "20.95",
            "longitude": "-97.4"
        },
        {
            "city": "Tunk\u00e1s",
            "region": "31",
            "country": "MX",
            "latitude": "20.9",
            "longitude": "-88.75"
        },
        {
            "city": "Tulum",
            "region": "23",
            "country": "MX",
            "latitude": "20.21667",
            "longitude": "-87.46667"
        },
        {
            "city": "Tultitl\u00e1n",
            "region": "15",
            "country": "MX",
            "latitude": "19.64722",
            "longitude": "-99.17083"
        },
        {
            "city": "Tultepec",
            "region": "15",
            "country": "MX",
            "latitude": "19.68472",
            "longitude": "-99.12917"
        },
        {
            "city": "Tulcingo del Valle",
            "region": "21",
            "country": "MX",
            "latitude": "18.05",
            "longitude": "-98.43333"
        },
        {
            "city": "Tulancingo",
            "region": "13",
            "country": "MX",
            "latitude": "20.08333",
            "longitude": "-98.36667"
        },
        {
            "city": "Tula de Allende",
            "region": "13",
            "country": "MX",
            "latitude": "20.05",
            "longitude": "-99.35"
        },
        {
            "city": "Tula",
            "region": "28",
            "country": "MX",
            "latitude": "23",
            "longitude": "-99.71667"
        },
        {
            "city": "Trinidad de Zaachila",
            "region": "20",
            "country": "MX",
            "latitude": "16.91667",
            "longitude": "-96.76667"
        },
        {
            "city": "Tres Picos",
            "region": "05",
            "country": "MX",
            "latitude": "15.86667",
            "longitude": "-93.53333"
        },
        {
            "city": "Totutla",
            "region": "30",
            "country": "MX",
            "latitude": "19.21667",
            "longitude": "-96.93333"
        },
        {
            "city": "Totolapan",
            "region": "17",
            "country": "MX",
            "latitude": "18.96667",
            "longitude": "-98.91667"
        },
        {
            "city": "Totolapa",
            "region": "30",
            "country": "MX",
            "latitude": "18.51667",
            "longitude": "-96.18333"
        },
        {
            "city": "Totolapa",
            "region": "05",
            "country": "MX",
            "latitude": "16.6",
            "longitude": "-92.68333"
        },
        {
            "city": "Totocuitlapilco",
            "region": "15",
            "country": "MX",
            "latitude": "19.23333",
            "longitude": "-99.58333"
        },
        {
            "city": "Tomatl\u00e1n",
            "region": "30",
            "country": "MX",
            "latitude": "19.03333",
            "longitude": "-97"
        },
        {
            "city": "Toluca",
            "region": "15",
            "country": "MX",
            "latitude": "19.28833",
            "longitude": "-99.66722"
        },
        {
            "city": "Tolcayuca",
            "region": "13",
            "country": "MX",
            "latitude": "19.95",
            "longitude": "-98.91667"
        },
        {
            "city": "Tocuila",
            "region": "30",
            "country": "MX",
            "latitude": "18.95",
            "longitude": "-97.01667"
        },
        {
            "city": "Tochtepec",
            "region": "21",
            "country": "MX",
            "latitude": "18.83333",
            "longitude": "-97.81667"
        },
        {
            "city": "Tochimilco",
            "region": "21",
            "country": "MX",
            "latitude": "18.9",
            "longitude": "-98.56667"
        },
        {
            "city": "Tocatl\u00e1n",
            "region": "29",
            "country": "MX",
            "latitude": "19.38333",
            "longitude": "-98.01667"
        },
        {
            "city": "Tlayacapan",
            "region": "17",
            "country": "MX",
            "latitude": "18.93333",
            "longitude": "-98.98333"
        },
        {
            "city": "Tlaxco de Morelos",
            "region": "29",
            "country": "MX",
            "latitude": "19.61667",
            "longitude": "-98.11667"
        },
        {
            "city": "Tlaxcoapan",
            "region": "13",
            "country": "MX",
            "latitude": "20.08333",
            "longitude": "-99.21667"
        },
        {
            "city": "Tlaxco",
            "region": "21",
            "country": "MX",
            "latitude": "20.43333",
            "longitude": "-98.01667"
        },
        {
            "city": "Tlaxcalancingo",
            "region": "21",
            "country": "MX",
            "latitude": "19.03333",
            "longitude": "-98.26667"
        },
        {
            "city": "Tlatlauquitepec",
            "region": "21",
            "country": "MX",
            "latitude": "19.85",
            "longitude": "-97.48333"
        },
        {
            "city": "Tlatenchi",
            "region": "17",
            "country": "MX",
            "latitude": "18.58333",
            "longitude": "-99.2"
        },
        {
            "city": "Tlaquiltenango",
            "region": "17",
            "country": "MX",
            "latitude": "18.63333",
            "longitude": "-99.16667"
        },
        {
            "city": "Tlapa de Comonfort",
            "region": "12",
            "country": "MX",
            "latitude": "17.55",
            "longitude": "-98.55"
        },
        {
            "city": "Tlapacoyan",
            "region": "30",
            "country": "MX",
            "latitude": "19.96667",
            "longitude": "-97.21667"
        },
        {
            "city": "Tlanepantla",
            "region": "21",
            "country": "MX",
            "latitude": "18.85",
            "longitude": "-97.9"
        },
        {
            "city": "Tlanchinol",
            "region": "13",
            "country": "MX",
            "latitude": "20.98333",
            "longitude": "-98.65"
        },
        {
            "city": "Tlanalapan",
            "region": "13",
            "country": "MX",
            "latitude": "19.81667",
            "longitude": "-98.6"
        },
        {
            "city": "Tlanalapan",
            "region": "21",
            "country": "MX",
            "latitude": "19.25",
            "longitude": "-97.26667"
        },
        {
            "city": "Tlamacazapa",
            "region": "12",
            "country": "MX",
            "latitude": "18.51667",
            "longitude": "-99.5"
        },
        {
            "city": "Tlaltizap\u00e1n",
            "region": "17",
            "country": "MX",
            "latitude": "18.68333",
            "longitude": "-99.11667"
        },
        {
            "city": "Tlaltenango",
            "region": "21",
            "country": "MX",
            "latitude": "19.16667",
            "longitude": "-98.33333"
        },
        {
            "city": "Tlalpan",
            "region": "09",
            "country": "MX",
            "latitude": "19.28333",
            "longitude": "-99.16667"
        },
        {
            "city": "Tlalnepantla",
            "region": "15",
            "country": "MX",
            "latitude": "19.52694",
            "longitude": "-99.22167"
        },
        {
            "city": "Tlalnepantla",
            "region": "17",
            "country": "MX",
            "latitude": "19",
            "longitude": "-98.98333"
        },
        {
            "city": "Tlalmanalco de Vel\u00e1zquez",
            "region": "15",
            "country": "MX",
            "latitude": "19.21667",
            "longitude": "-98.8"
        },
        {
            "city": "Tlalixtac de Cabrera",
            "region": "20",
            "country": "MX",
            "latitude": "17.06667",
            "longitude": "-96.65"
        },
        {
            "city": "Tlahuelilpan",
            "region": "13",
            "country": "MX",
            "latitude": "20.13333",
            "longitude": "-99.23333"
        },
        {
            "city": "Tlahuac",
            "region": "09",
            "country": "MX",
            "latitude": "19.28167",
            "longitude": "-99.00333"
        },
        {
            "city": "Tlacotepec",
            "region": "21",
            "country": "MX",
            "latitude": "20.06667",
            "longitude": "-97.86667"
        },
        {
            "city": "Tlacotepec",
            "region": "17",
            "country": "MX",
            "latitude": "18.81667",
            "longitude": "-98.75"
        },
        {
            "city": "Tlacotepec",
            "region": "12",
            "country": "MX",
            "latitude": "17.76667",
            "longitude": "-99.98333"
        },
        {
            "city": "Tlacotalpan",
            "region": "30",
            "country": "MX",
            "latitude": "18.61667",
            "longitude": "-95.66667"
        },
        {
            "city": "Tlacolula de Matamoros",
            "region": "20",
            "country": "MX",
            "latitude": "16.95",
            "longitude": "-96.48333"
        },
        {
            "city": "Tlacojalpan",
            "region": "30",
            "country": "MX",
            "latitude": "18.23333",
            "longitude": "-95.95"
        },
        {
            "city": "Tlachichuca",
            "region": "21",
            "country": "MX",
            "latitude": "19.1",
            "longitude": "-97.41667"
        },
        {
            "city": "Tizim\u00edn",
            "region": "31",
            "country": "MX",
            "latitude": "21.15",
            "longitude": "-88.15"
        },
        {
            "city": "Tizayuca",
            "region": "13",
            "country": "MX",
            "latitude": "19.83333",
            "longitude": "-98.98333"
        },
        {
            "city": "Tixtla de Guerrero",
            "region": "12",
            "country": "MX",
            "latitude": "17.56732",
            "longitude": "-99.39799"
        },
        {
            "city": "Tixpehual",
            "region": "31",
            "country": "MX",
            "latitude": "20.98333",
            "longitude": "-89.51667"
        },
        {
            "city": "Tixkokob",
            "region": "31",
            "country": "MX",
            "latitude": "21",
            "longitude": "-89.4"
        },
        {
            "city": "Timucuy",
            "region": "31",
            "country": "MX",
            "latitude": "20.81667",
            "longitude": "-89.51667"
        },
        {
            "city": "Tilzapotla",
            "region": "17",
            "country": "MX",
            "latitude": "18.48333",
            "longitude": "-99.26667"
        },
        {
            "city": "Tila",
            "region": "05",
            "country": "MX",
            "latitude": "17.4",
            "longitude": "-92.48333"
        },
        {
            "city": "Tihuatl\u00e1n",
            "region": "30",
            "country": "MX",
            "latitude": "20.71667",
            "longitude": "-97.53333"
        },
        {
            "city": "Tierra Colorada",
            "region": "12",
            "country": "MX",
            "latitude": "17.16667",
            "longitude": "-99.58333"
        },
        {
            "city": "Ticul",
            "region": "31",
            "country": "MX",
            "latitude": "20.4",
            "longitude": "-89.53333"
        },
        {
            "city": "Tianguistenco",
            "region": "15",
            "country": "MX",
            "latitude": "19.17972",
            "longitude": "-99.47056"
        },
        {
            "city": "Tezontepec de Aldama",
            "region": "13",
            "country": "MX",
            "latitude": "20.2",
            "longitude": "-99.26667"
        },
        {
            "city": "Tezontepec",
            "region": "13",
            "country": "MX",
            "latitude": "19.88333",
            "longitude": "-98.81667"
        },
        {
            "city": "Teziutl\u00e1n",
            "region": "21",
            "country": "MX",
            "latitude": "19.81667",
            "longitude": "-97.35"
        },
        {
            "city": "Texistepec",
            "region": "30",
            "country": "MX",
            "latitude": "17.88333",
            "longitude": "-94.78333"
        },
        {
            "city": "Texcoco de Mora",
            "region": "15",
            "country": "MX",
            "latitude": "19.51667",
            "longitude": "-98.88333"
        },
        {
            "city": "Tetzoyocan",
            "region": "21",
            "country": "MX",
            "latitude": "18.75",
            "longitude": "-97.7"
        },
        {
            "city": "Tetiz",
            "region": "31",
            "country": "MX",
            "latitude": "20.96667",
            "longitude": "-89.93333"
        },
        {
            "city": "Tetepango",
            "region": "13",
            "country": "MX",
            "latitude": "20.1",
            "longitude": "-99.16667"
        },
        {
            "city": "Tetelzingo",
            "region": "30",
            "country": "MX",
            "latitude": "19.06667",
            "longitude": "-97.15"
        },
        {
            "city": "Teteles",
            "region": "21",
            "country": "MX",
            "latitude": "19.86667",
            "longitude": "-97.43333"
        },
        {
            "city": "Tetela de Ocampo",
            "region": "21",
            "country": "MX",
            "latitude": "19.81667",
            "longitude": "-97.8"
        },
        {
            "city": "Tetela del Volc\u00e1n",
            "region": "17",
            "country": "MX",
            "latitude": "18.86667",
            "longitude": "-98.71667"
        },
        {
            "city": "Tetecala",
            "region": "17",
            "country": "MX",
            "latitude": "18.71667",
            "longitude": "-99.4"
        },
        {
            "city": "Terrenate",
            "region": "29",
            "country": "MX",
            "latitude": "19.48333",
            "longitude": "-97.91667"
        },
        {
            "city": "Tequixquiac",
            "region": "15",
            "country": "MX",
            "latitude": "19.90806",
            "longitude": "-99.1475"
        },
        {
            "city": "Tequisquiapan",
            "region": "22",
            "country": "MX",
            "latitude": "20.51667",
            "longitude": "-99.86667"
        },
        {
            "city": "Tequila",
            "region": "30",
            "country": "MX",
            "latitude": "18.73333",
            "longitude": "-97.06667"
        },
        {
            "city": "Tepulco",
            "region": "21",
            "country": "MX",
            "latitude": "19.11667",
            "longitude": "-97.98333"
        },
        {
            "city": "Cuautitl\u00e1n Izcalli",
            "region": "15",
            "country": "MX",
            "latitude": "19.64694",
            "longitude": "-99.24667"
        },
        {
            "city": "Tepoztl\u00e1n",
            "region": "17",
            "country": "MX",
            "latitude": "18.98333",
            "longitude": "-99.1"
        },
        {
            "city": "Tepotzotl\u00e1n",
            "region": "15",
            "country": "MX",
            "latitude": "19.71389",
            "longitude": "-99.22444"
        },
        {
            "city": "Tepexi de Rodr\u00edguez",
            "region": "21",
            "country": "MX",
            "latitude": "18.58333",
            "longitude": "-97.93333"
        },
        {
            "city": "Tepetzintla",
            "region": "30",
            "country": "MX",
            "latitude": "21.16667",
            "longitude": "-97.83333"
        },
        {
            "city": "Tepetlaoxtoc de Hidalgo",
            "region": "15",
            "country": "MX",
            "latitude": "19.58333",
            "longitude": "-98.81667"
        },
        {
            "city": "Tepetitl\u00e1n",
            "region": "15",
            "country": "MX",
            "latitude": "19.63333",
            "longitude": "-99.91667"
        },
        {
            "city": "Tepetitla",
            "region": "29",
            "country": "MX",
            "latitude": "19.28333",
            "longitude": "-98.38333"
        },
        {
            "city": "Tepepa",
            "region": "13",
            "country": "MX",
            "latitude": "20.13333",
            "longitude": "-98.18333"
        },
        {
            "city": "Tepeojuma",
            "region": "21",
            "country": "MX",
            "latitude": "18.71667",
            "longitude": "-98.45"
        },
        {
            "city": "Tepeji de Ocampo",
            "region": "13",
            "country": "MX",
            "latitude": "19.90528",
            "longitude": "-99.34389"
        },
        {
            "city": "Tepecoacuilco de Trujano",
            "region": "12",
            "country": "MX",
            "latitude": "18.3",
            "longitude": "-99.48333"
        },
        {
            "city": "Tepeapulco",
            "region": "13",
            "country": "MX",
            "latitude": "19.78333",
            "longitude": "-98.55"
        },
        {
            "city": "Tepeaca",
            "region": "21",
            "country": "MX",
            "latitude": "18.96667",
            "longitude": "-97.9"
        },
        {
            "city": "Tepatlaxco de Hidalgo",
            "region": "21",
            "country": "MX",
            "latitude": "19.06747",
            "longitude": "-97.96595"
        },
        {
            "city": "Tepatepec",
            "region": "13",
            "country": "MX",
            "latitude": "20.23333",
            "longitude": "-99.08333"
        },
        {
            "city": "Tepango de Rodr\u00edguez",
            "region": "21",
            "country": "MX",
            "latitude": "20",
            "longitude": "-97.81667"
        },
        {
            "city": "Tepalcingo",
            "region": "17",
            "country": "MX",
            "latitude": "18.6",
            "longitude": "-98.85"
        },
        {
            "city": "Teopisca",
            "region": "05",
            "country": "MX",
            "latitude": "16.51667",
            "longitude": "-92.48333"
        },
        {
            "city": "Teopantl\u00e1n",
            "region": "21",
            "country": "MX",
            "latitude": "18.71667",
            "longitude": "-98.26667"
        },
        {
            "city": "Teoloyucan",
            "region": "15",
            "country": "MX",
            "latitude": "19.74556",
            "longitude": "-99.18333"
        },
        {
            "city": "Teocelo",
            "region": "30",
            "country": "MX",
            "latitude": "19.38333",
            "longitude": "-96.96667"
        },
        {
            "city": "Tenosique de Pino Su\u00e1rez",
            "region": "27",
            "country": "MX",
            "latitude": "17.48333",
            "longitude": "-91.43333"
        },
        {
            "city": "Tenango del Aire",
            "region": "15",
            "country": "MX",
            "latitude": "19.16629",
            "longitude": "-98.85128"
        },
        {
            "city": "Tenango de Arista",
            "region": "15",
            "country": "MX",
            "latitude": "19.10167",
            "longitude": "-99.59306"
        },
        {
            "city": "Tenango",
            "region": "21",
            "country": "MX",
            "latitude": "18.65",
            "longitude": "-98.18333"
        },
        {
            "city": "Tenango",
            "region": "05",
            "country": "MX",
            "latitude": "16.96667",
            "longitude": "-92.41667"
        },
        {
            "city": "Tenancingo de Degollado",
            "region": "15",
            "country": "MX",
            "latitude": "18.96667",
            "longitude": "-99.6"
        },
        {
            "city": "Tenab\u00f3",
            "region": "04",
            "country": "MX",
            "latitude": "20.05",
            "longitude": "-90.23333"
        },
        {
            "city": "Tempoal de S\u00e1nchez",
            "region": "30",
            "country": "MX",
            "latitude": "21.51667",
            "longitude": "-98.38333"
        },
        {
            "city": "Temoz\u00f3n",
            "region": "31",
            "country": "MX",
            "latitude": "20.8",
            "longitude": "-88.21667"
        },
        {
            "city": "Temoaya",
            "region": "15",
            "country": "MX",
            "latitude": "19.47083",
            "longitude": "-99.59111"
        },
        {
            "city": "Temoac",
            "region": "17",
            "country": "MX",
            "latitude": "18.76667",
            "longitude": "-98.78333"
        },
        {
            "city": "Temixco",
            "region": "17",
            "country": "MX",
            "latitude": "18.85",
            "longitude": "-99.23333"
        },
        {
            "city": "Temax",
            "region": "31",
            "country": "MX",
            "latitude": "21.15",
            "longitude": "-88.93333"
        },
        {
            "city": "Temascalcingo",
            "region": "15",
            "country": "MX",
            "latitude": "19.91667",
            "longitude": "-100"
        },
        {
            "city": "Temascalapa",
            "region": "15",
            "country": "MX",
            "latitude": "19.83333",
            "longitude": "-98.9"
        },
        {
            "city": "Temapache",
            "region": "30",
            "country": "MX",
            "latitude": "21.06667",
            "longitude": "-97.63333"
        },
        {
            "city": "Temamatla",
            "region": "15",
            "country": "MX",
            "latitude": "19.2",
            "longitude": "-98.88333"
        },
        {
            "city": "Teloloapan",
            "region": "12",
            "country": "MX",
            "latitude": "18.35",
            "longitude": "-99.85"
        },
        {
            "city": "Telixtac",
            "region": "17",
            "country": "MX",
            "latitude": "18.56667",
            "longitude": "-98.76667"
        },
        {
            "city": "Telchac",
            "region": "31",
            "country": "MX",
            "latitude": "21.2",
            "longitude": "-89.26667"
        },
        {
            "city": "Tekit",
            "region": "31",
            "country": "MX",
            "latitude": "20.53333",
            "longitude": "-89.33333"
        },
        {
            "city": "Tekax de \u00c1lvaro Obreg\u00f3n",
            "region": "31",
            "country": "MX",
            "latitude": "20.2",
            "longitude": "-89.28333"
        },
        {
            "city": "Tekanto",
            "region": "31",
            "country": "MX",
            "latitude": "21.01667",
            "longitude": "-89.1"
        },
        {
            "city": "Tehuixtla",
            "region": "17",
            "country": "MX",
            "latitude": "18.55",
            "longitude": "-99.26667"
        },
        {
            "city": "Tehuac\u00e1n",
            "region": "21",
            "country": "MX",
            "latitude": "18.45",
            "longitude": "-97.38333"
        },
        {
            "city": "Tecpat\u00e1n",
            "region": "05",
            "country": "MX",
            "latitude": "17.13333",
            "longitude": "-93.3"
        },
        {
            "city": "Tecozautla",
            "region": "13",
            "country": "MX",
            "latitude": "20.53333",
            "longitude": "-99.63333"
        },
        {
            "city": "Tecolutla",
            "region": "30",
            "country": "MX",
            "latitude": "20.48333",
            "longitude": "-97.01667"
        },
        {
            "city": "Tecolutilla",
            "region": "27",
            "country": "MX",
            "latitude": "18.28333",
            "longitude": "-93.31667"
        },
        {
            "city": "Tecoh",
            "region": "31",
            "country": "MX",
            "latitude": "20.75",
            "longitude": "-89.46667"
        },
        {
            "city": "Tecoanapa",
            "region": "12",
            "country": "MX",
            "latitude": "16.51667",
            "longitude": "-98.75"
        },
        {
            "city": "San Pedro Techuchulco",
            "region": "15",
            "country": "MX",
            "latitude": "19.11083",
            "longitude": "-99.52778"
        },
        {
            "city": "Tecamachalco",
            "region": "21",
            "country": "MX",
            "latitude": "18.88333",
            "longitude": "-97.73333"
        },
        {
            "city": "Tecali de Herrera",
            "region": "21",
            "country": "MX",
            "latitude": "18.9",
            "longitude": "-97.96667"
        },
        {
            "city": "Teapa",
            "region": "27",
            "country": "MX",
            "latitude": "17.55",
            "longitude": "-92.95"
        },
        {
            "city": "Teabo",
            "region": "31",
            "country": "MX",
            "latitude": "20.4",
            "longitude": "-89.28333"
        },
        {
            "city": "Taxco de Alarc\u00f3n",
            "region": "12",
            "country": "MX",
            "latitude": "18.55",
            "longitude": "-99.6"
        },
        {
            "city": "Tatahuicapan",
            "region": "30",
            "country": "MX",
            "latitude": "18.23333",
            "longitude": "-94.75"
        },
        {
            "city": "Tasquillo",
            "region": "13",
            "country": "MX",
            "latitude": "20.55",
            "longitude": "-99.3"
        },
        {
            "city": "Tapilula",
            "region": "05",
            "country": "MX",
            "latitude": "17.23333",
            "longitude": "-93.03333"
        },
        {
            "city": "Tapachula",
            "region": "05",
            "country": "MX",
            "latitude": "14.9",
            "longitude": "-92.28333"
        },
        {
            "city": "Tantoyuca",
            "region": "30",
            "country": "MX",
            "latitude": "21.35",
            "longitude": "-98.23333"
        },
        {
            "city": "Tanqui\u00e1n Escobedo",
            "region": "24",
            "country": "MX",
            "latitude": "21.61667",
            "longitude": "-98.63333"
        },
        {
            "city": "Tamult\u00e9 de las Sabanas",
            "region": "27",
            "country": "MX",
            "latitude": "18.21667",
            "longitude": "-92.78333"
        },
        {
            "city": "Tamu\u00edn",
            "region": "24",
            "country": "MX",
            "latitude": "21.98333",
            "longitude": "-98.75"
        },
        {
            "city": "Tampico",
            "region": "28",
            "country": "MX",
            "latitude": "22.21667",
            "longitude": "-97.85"
        },
        {
            "city": "Tamiahua",
            "region": "30",
            "country": "MX",
            "latitude": "21.26667",
            "longitude": "-97.45"
        },
        {
            "city": "Tamazunchale",
            "region": "24",
            "country": "MX",
            "latitude": "21.26667",
            "longitude": "-98.78333"
        },
        {
            "city": "Tamasopo",
            "region": "24",
            "country": "MX",
            "latitude": "21.93333",
            "longitude": "-99.48333"
        },
        {
            "city": "Tamal\u00edn",
            "region": "30",
            "country": "MX",
            "latitude": "21.35",
            "longitude": "-97.8"
        },
        {
            "city": "Tahmek",
            "region": "31",
            "country": "MX",
            "latitude": "20.88333",
            "longitude": "-89.26667"
        },
        {
            "city": "Tacotalpa",
            "region": "27",
            "country": "MX",
            "latitude": "17.6",
            "longitude": "-92.81667"
        },
        {
            "city": "Sultepec de Pedro Ascencio de Alquisiras",
            "region": "15",
            "country": "MX",
            "latitude": "18.86667",
            "longitude": "-99.95"
        },
        {
            "city": "Sucila",
            "region": "31",
            "country": "MX",
            "latitude": "21.15",
            "longitude": "-88.31667"
        },
        {
            "city": "Suchiate",
            "region": "05",
            "country": "MX",
            "latitude": "14.55",
            "longitude": "-92.21667"
        },
        {
            "city": "Suchiapa",
            "region": "05",
            "country": "MX",
            "latitude": "16.61667",
            "longitude": "-93.08333"
        },
        {
            "city": "Soyaniquilpan",
            "region": "15",
            "country": "MX",
            "latitude": "19.98333",
            "longitude": "-99.5"
        },
        {
            "city": "Soyal\u00f3",
            "region": "05",
            "country": "MX",
            "latitude": "16.9",
            "longitude": "-92.91667"
        },
        {
            "city": "Sotuta",
            "region": "31",
            "country": "MX",
            "latitude": "20.6",
            "longitude": "-89.01667"
        },
        {
            "city": "Soto la Marina",
            "region": "28",
            "country": "MX",
            "latitude": "23.76667",
            "longitude": "-98.21667"
        },
        {
            "city": "Soteapan",
            "region": "30",
            "country": "MX",
            "latitude": "18.23333",
            "longitude": "-94.86667"
        },
        {
            "city": "Soltepec",
            "region": "21",
            "country": "MX",
            "latitude": "19.11667",
            "longitude": "-97.7"
        },
        {
            "city": "Soledad de Doblado",
            "region": "30",
            "country": "MX",
            "latitude": "19.05",
            "longitude": "-96.41667"
        },
        {
            "city": "Soconusco",
            "region": "30",
            "country": "MX",
            "latitude": "17.96667",
            "longitude": "-94.86667"
        },
        {
            "city": "Socoltenango",
            "region": "05",
            "country": "MX",
            "latitude": "16.21667",
            "longitude": "-92.25"
        },
        {
            "city": "Singuilucan",
            "region": "13",
            "country": "MX",
            "latitude": "19.96667",
            "longitude": "-98.51667"
        },
        {
            "city": "Simojovel de Allende",
            "region": "05",
            "country": "MX",
            "latitude": "17.2",
            "longitude": "-92.63333"
        },
        {
            "city": "Sey\u00e9",
            "region": "31",
            "country": "MX",
            "latitude": "20.83333",
            "longitude": "-89.36667"
        },
        {
            "city": "Seybaplaya",
            "region": "04",
            "country": "MX",
            "latitude": "19.65",
            "longitude": "-90.66667"
        },
        {
            "city": "Sayula de Alem\u00e1n",
            "region": "30",
            "country": "MX",
            "latitude": "17.86667",
            "longitude": "-94.95"
        },
        {
            "city": "San Vicente Xiloxochitla",
            "region": "29",
            "country": "MX",
            "latitude": "19.26667",
            "longitude": "-98.2"
        },
        {
            "city": "San Vicente Tancuayalab",
            "region": "24",
            "country": "MX",
            "latitude": "21.73333",
            "longitude": "-98.56667"
        },
        {
            "city": "San Vicente Coatl\u00e1n",
            "region": "20",
            "country": "MX",
            "latitude": "16.38333",
            "longitude": "-96.83333"
        },
        {
            "city": "Santo Tom\u00e1s Hueyotlipan",
            "region": "21",
            "country": "MX",
            "latitude": "18.9",
            "longitude": "-97.85"
        },
        {
            "city": "Santo Tom\u00e1s Chautla",
            "region": "21",
            "country": "MX",
            "latitude": "18.95",
            "longitude": "-98.15"
        },
        {
            "city": "Santo Domingo Zanatepec",
            "region": "20",
            "country": "MX",
            "latitude": "16.48307",
            "longitude": "-94.34754"
        },
        {
            "city": "Santo Domingo Tehuantepec",
            "region": "20",
            "country": "MX",
            "latitude": "16.33333",
            "longitude": "-95.23333"
        },
        {
            "city": "Santo Domingo de Guzm\u00e1n",
            "region": "15",
            "country": "MX",
            "latitude": "19.58833",
            "longitude": "-99.77472"
        },
        {
            "city": "Santiago Yaitepec",
            "region": "20",
            "country": "MX",
            "latitude": "16.23333",
            "longitude": "-97.23333"
        },
        {
            "city": "Santiago Tuxtla",
            "region": "30",
            "country": "MX",
            "latitude": "18.46667",
            "longitude": "-95.3"
        },
        {
            "city": "Santiago Tetla",
            "region": "29",
            "country": "MX",
            "latitude": "19.43333",
            "longitude": "-98.1"
        },
        {
            "city": "Santiago Suchilquitongo",
            "region": "20",
            "country": "MX",
            "latitude": "17.25",
            "longitude": "-96.88333"
        },
        {
            "city": "Santiago Pinotepa Nacional",
            "region": "20",
            "country": "MX",
            "latitude": "16.31667",
            "longitude": "-98.01667"
        },
        {
            "city": "Santiago Miahuatl\u00e1n",
            "region": "21",
            "country": "MX",
            "latitude": "18.56667",
            "longitude": "-97.43333"
        },
        {
            "city": "Santiago Matatl\u00e1n",
            "region": "20",
            "country": "MX",
            "latitude": "16.86667",
            "longitude": "-96.38333"
        },
        {
            "city": "Santiago Juxtlahuaca",
            "region": "20",
            "country": "MX",
            "latitude": "17.33333",
            "longitude": "-98.01667"
        },
        {
            "city": "Santiago Jamiltepec",
            "region": "20",
            "country": "MX",
            "latitude": "16.28333",
            "longitude": "-97.81667"
        },
        {
            "city": "Santiago de la Pe\u00f1a",
            "region": "30",
            "country": "MX",
            "latitude": "20.95",
            "longitude": "-97.4"
        },
        {
            "city": "Santiago Alseseca",
            "region": "21",
            "country": "MX",
            "latitude": "18.83333",
            "longitude": "-97.68333"
        },
        {
            "city": "Santiago Acutzilapan",
            "region": "15",
            "country": "MX",
            "latitude": "19.78333",
            "longitude": "-99.68333"
        },
        {
            "city": "Santiago Acatl\u00e1n",
            "region": "21",
            "country": "MX",
            "latitude": "18.98333",
            "longitude": "-97.91667"
        },
        {
            "city": "Santiago Tulantepec",
            "region": "13",
            "country": "MX",
            "latitude": "20.03333",
            "longitude": "-98.35"
        },
        {
            "city": "Santa Rosal\u00eda",
            "region": "27",
            "country": "MX",
            "latitude": "18.06667",
            "longitude": "-93.38333"
        },
        {
            "city": "Santa Rita Tlahuapan",
            "region": "21",
            "country": "MX",
            "latitude": "19.33333",
            "longitude": "-98.56667"
        },
        {
            "city": "Santander Jim\u00e9nez",
            "region": "28",
            "country": "MX",
            "latitude": "24.21667",
            "longitude": "-98.46667"
        },
        {
            "city": "Santa Mar\u00eda Zacatepec",
            "region": "20",
            "country": "MX",
            "latitude": "16.76667",
            "longitude": "-97.98333"
        },
        {
            "city": "Santa Mar\u00eda Xadani",
            "region": "20",
            "country": "MX",
            "latitude": "15.93333",
            "longitude": "-96.06667"
        },
        {
            "city": "Ray\u00f3n",
            "region": "15",
            "country": "MX",
            "latitude": "19.14444",
            "longitude": "-99.58361"
        },
        {
            "city": "Santa Mar\u00eda Petapa",
            "region": "20",
            "country": "MX",
            "latitude": "16.83333",
            "longitude": "-95.11667"
        },
        {
            "city": "Santa Mar\u00eda Nopaltepec",
            "region": "15",
            "country": "MX",
            "latitude": "19.8",
            "longitude": "-98.7"
        },
        {
            "city": "Santa Mar\u00eda Nativitas",
            "region": "15",
            "country": "MX",
            "latitude": "19.57889",
            "longitude": "-99.61083"
        },
        {
            "city": "Santa Mar\u00eda Moyotzingo",
            "region": "21",
            "country": "MX",
            "latitude": "19.25",
            "longitude": "-98.4"
        },
        {
            "city": "Cahuac\u00e1n",
            "region": "15",
            "country": "MX",
            "latitude": "19.63917",
            "longitude": "-99.41611"
        },
        {
            "city": "Santa Mar\u00eda la Alta",
            "region": "21",
            "country": "MX",
            "latitude": "18.6",
            "longitude": "-97.66667"
        },
        {
            "city": "Santa Mar\u00eda Ixtiyucan",
            "region": "21",
            "country": "MX",
            "latitude": "19.18333",
            "longitude": "-97.81667"
        },
        {
            "city": "Santa Mar\u00eda Huazolotitlan",
            "region": "20",
            "country": "MX",
            "latitude": "16.28333",
            "longitude": "-97.93333"
        },
        {
            "city": "Huatulco",
            "region": "20",
            "country": "MX",
            "latitude": "15.84361",
            "longitude": "-96.32667"
        },
        {
            "city": "Santa Mar\u00eda del Tule",
            "region": "20",
            "country": "MX",
            "latitude": "17.03333",
            "longitude": "-96.61667"
        },
        {
            "city": "Santa Mar\u00eda del Monte",
            "region": "15",
            "country": "MX",
            "latitude": "19.28778",
            "longitude": "-99.82278"
        },
        {
            "city": "Santa Mar\u00eda Coronanco",
            "region": "21",
            "country": "MX",
            "latitude": "19.11667",
            "longitude": "-98.3"
        },
        {
            "city": "Santa Mar\u00eda Ayoquezco de Aldama",
            "region": "20",
            "country": "MX",
            "latitude": "16.68333",
            "longitude": "-96.83333"
        },
        {
            "city": "Santa Mar\u00eda Asunci\u00f3n Tlaxiaco",
            "region": "20",
            "country": "MX",
            "latitude": "17.26667",
            "longitude": "-97.68333"
        },
        {
            "city": "Santa Mar\u00eda Ajoloapan",
            "region": "15",
            "country": "MX",
            "latitude": "19.97861",
            "longitude": "-99.04722"
        },
        {
            "city": "Santa Mar\u00eda Acuexcomac",
            "region": "21",
            "country": "MX",
            "latitude": "19.03333",
            "longitude": "-98.38333"
        },
        {
            "city": "Santa In\u00e9s Ahuatempan",
            "region": "21",
            "country": "MX",
            "latitude": "18.41667",
            "longitude": "-98.01667"
        },
        {
            "city": "Santa Gertrudis",
            "region": "15",
            "country": "MX",
            "latitude": "19.73333",
            "longitude": "-99.36667"
        },
        {
            "city": "Guillermo Z\u00fa\u00f1iga",
            "region": "28",
            "country": "MX",
            "latitude": "24.01667",
            "longitude": "-99.2"
        },
        {
            "city": "Santa Elena",
            "region": "31",
            "country": "MX",
            "latitude": "20.33333",
            "longitude": "-89.65"
        },
        {
            "city": "Santa Cruz Xoxocotl\u00e1n",
            "region": "20",
            "country": "MX",
            "latitude": "17.01667",
            "longitude": "-96.73333"
        },
        {
            "city": "Santa Cruz Xitla",
            "region": "20",
            "country": "MX",
            "latitude": "16.31667",
            "longitude": "-96.66667"
        },
        {
            "city": "Santa Cruz Tepexpan",
            "region": "15",
            "country": "MX",
            "latitude": "19.56806",
            "longitude": "-99.70417"
        },
        {
            "city": "Santa Cruz Tecamac",
            "region": "15",
            "country": "MX",
            "latitude": "19.73333",
            "longitude": "-98.96667"
        },
        {
            "city": "Santa Cruz Cuauhtenco",
            "region": "15",
            "country": "MX",
            "latitude": "19.25056",
            "longitude": "-99.73361"
        },
        {
            "city": "Santa Clara Ocoyucan",
            "region": "21",
            "country": "MX",
            "latitude": "18.96667",
            "longitude": "-98.28333"
        },
        {
            "city": "Santa Catarina Pantelh\u00f3",
            "region": "05",
            "country": "MX",
            "latitude": "16.93333",
            "longitude": "-92.55"
        },
        {
            "city": "Santa Catarina Mechoac\u00e1n",
            "region": "20",
            "country": "MX",
            "latitude": "16.33333",
            "longitude": "-97.83333"
        },
        {
            "city": "Santa Catarina Juquila",
            "region": "20",
            "country": "MX",
            "latitude": "16.23333",
            "longitude": "-97.3"
        },
        {
            "city": "Santa Catarina Ayotzingo",
            "region": "15",
            "country": "MX",
            "latitude": "19.2",
            "longitude": "-98.93333"
        },
        {
            "city": "Santa Catarina",
            "region": "17",
            "country": "MX",
            "latitude": "18.96667",
            "longitude": "-99.13333"
        },
        {
            "city": "Nextlalpan",
            "region": "15",
            "country": "MX",
            "latitude": "19.74417",
            "longitude": "-99.07333"
        },
        {
            "city": "Santa Ana Jilotzingo",
            "region": "15",
            "country": "MX",
            "latitude": "19.53944",
            "longitude": "-99.40083"
        },
        {
            "city": "Santa Ana Huiloac",
            "region": "29",
            "country": "MX",
            "latitude": "19.4",
            "longitude": "-98.15"
        },
        {
            "city": "Santa Ana Hueytlalpan",
            "region": "13",
            "country": "MX",
            "latitude": "20.18333",
            "longitude": "-98.3"
        },
        {
            "city": "Santa Ana Chiautempan",
            "region": "29",
            "country": "MX",
            "latitude": "19.31667",
            "longitude": "-98.18333"
        },
        {
            "city": "San Sebasti\u00e1n Zinacatepec",
            "region": "21",
            "country": "MX",
            "latitude": "18.33333",
            "longitude": "-97.25"
        },
        {
            "city": "San Sebasti\u00e1n Villanueva",
            "region": "21",
            "country": "MX",
            "latitude": "19.05",
            "longitude": "-97.71667"
        },
        {
            "city": "San Sebasti\u00e1n Tutla",
            "region": "20",
            "country": "MX",
            "latitude": "17.75",
            "longitude": "-97.6"
        },
        {
            "city": "Teitipac",
            "region": "20",
            "country": "MX",
            "latitude": "16.94583",
            "longitude": "-96.60917"
        },
        {
            "city": "San Salvador el Seco",
            "region": "21",
            "country": "MX",
            "latitude": "19.13333",
            "longitude": "-97.65"
        },
        {
            "city": "San Salvador Atenco",
            "region": "15",
            "country": "MX",
            "latitude": "19.51667",
            "longitude": "-98.91667"
        },
        {
            "city": "San Rafael",
            "region": "30",
            "country": "MX",
            "latitude": "20.2",
            "longitude": "-96.85"
        },
        {
            "city": "San Pedro y San Pablo Etla",
            "region": "20",
            "country": "MX",
            "latitude": "17.2",
            "longitude": "-96.8"
        },
        {
            "city": "San Pedro Tlanisco",
            "region": "30",
            "country": "MX",
            "latitude": "19.06139",
            "longitude": "-99.65556"
        },
        {
            "city": "San Pedro Tapanatepec",
            "region": "20",
            "country": "MX",
            "latitude": "16.35",
            "longitude": "-94.2"
        },
        {
            "city": "San Pedro Pochutla",
            "region": "20",
            "country": "MX",
            "latitude": "15.73333",
            "longitude": "-96.46667"
        },
        {
            "city": "San Pedro Mixtepec",
            "region": "20",
            "country": "MX",
            "latitude": "16.28333",
            "longitude": "-96.28333"
        },
        {
            "city": "San Pedro Los Ba\u00f1os",
            "region": "15",
            "country": "MX",
            "latitude": "19.6675",
            "longitude": "-99.83278"
        },
        {
            "city": "San Pedro Jicay\u00e1n",
            "region": "20",
            "country": "MX",
            "latitude": "16.41667",
            "longitude": "-97.98333"
        },
        {
            "city": "San Pedro Ixcatl\u00e1n",
            "region": "20",
            "country": "MX",
            "latitude": "18.15",
            "longitude": "-96.5"
        },
        {
            "city": "San Pedro El Alto",
            "region": "15",
            "country": "MX",
            "latitude": "19.61139",
            "longitude": "-99.91056"
        },
        {
            "city": "San Pedro Buenavista",
            "region": "05",
            "country": "MX",
            "latitude": "16.08333",
            "longitude": "-93.11667"
        },
        {
            "city": "San Pablo Villa de Mitla",
            "region": "20",
            "country": "MX",
            "latitude": "16.91667",
            "longitude": "-96.4"
        },
        {
            "city": "San Pablo Tecalco",
            "region": "15",
            "country": "MX",
            "latitude": "19.66667",
            "longitude": "-98.95"
        },
        {
            "city": "San Pablo Huixtepec",
            "region": "20",
            "country": "MX",
            "latitude": "16.83333",
            "longitude": "-96.76667"
        },
        {
            "city": "San Pablo Huitzo",
            "region": "20",
            "country": "MX",
            "latitude": "17.25",
            "longitude": "-96.86667"
        },
        {
            "city": "San Pablo de las Salinas",
            "region": "15",
            "country": "MX",
            "latitude": "19.66583",
            "longitude": "-99.09639"
        },
        {
            "city": "San Pablo Autopan",
            "region": "15",
            "country": "MX",
            "latitude": "19.35611",
            "longitude": "-99.6625"
        },
        {
            "city": "San Pablo Atlazalpan",
            "region": "15",
            "country": "MX",
            "latitude": "19.21667",
            "longitude": "-98.9"
        },
        {
            "city": "San Pablo Apetatitl\u00e1n",
            "region": "29",
            "country": "MX",
            "latitude": "19.33333",
            "longitude": "-98.18333"
        },
        {
            "city": "San Nicol\u00e1s de los Ranchos",
            "region": "21",
            "country": "MX",
            "latitude": "19.06667",
            "longitude": "-98.48333"
        },
        {
            "city": "San Nicol\u00e1s de Buenos Aires",
            "region": "21",
            "country": "MX",
            "latitude": "19.16667",
            "longitude": "-97.56667"
        },
        {
            "city": "San Nicol\u00e1s Coatepec",
            "region": "15",
            "country": "MX",
            "latitude": "19.13583",
            "longitude": "-99.43222"
        },
        {
            "city": "San Nicol\u00e1s",
            "region": "22",
            "country": "MX",
            "latitude": "20.48333",
            "longitude": "-99.91667"
        },
        {
            "city": "San Miguel Zozutla",
            "region": "21",
            "country": "MX",
            "latitude": "18.75",
            "longitude": "-97.65"
        },
        {
            "city": "San Miguel Zinacantepec",
            "region": "15",
            "country": "MX",
            "latitude": "19.28194",
            "longitude": "-99.73861"
        },
        {
            "city": "San Miguel Xoxtla",
            "region": "21",
            "country": "MX",
            "latitude": "19.18333",
            "longitude": "-98.3"
        },
        {
            "city": "San Miguel Tenextatiloyan",
            "region": "21",
            "country": "MX",
            "latitude": "19.71667",
            "longitude": "-97.58333"
        },
        {
            "city": "San Miguel Quetzaltepec",
            "region": "20",
            "country": "MX",
            "latitude": "16.96667",
            "longitude": "-95.81667"
        },
        {
            "city": "San Miguel Panixtlahuaca",
            "region": "20",
            "country": "MX",
            "latitude": "16.24844",
            "longitude": "-97.38427"
        },
        {
            "city": "San Miguel Coatlinch\u00e1n",
            "region": "15",
            "country": "MX",
            "latitude": "19.45",
            "longitude": "-98.86667"
        },
        {
            "city": "Chapultepec",
            "region": "15",
            "country": "MX",
            "latitude": "19.19944",
            "longitude": "-99.565"
        },
        {
            "city": "San Miguel Canoa",
            "region": "21",
            "country": "MX",
            "latitude": "19.15",
            "longitude": "-98.08333"
        },
        {
            "city": "San Miguel Balderas",
            "region": "15",
            "country": "MX",
            "latitude": "19.10694",
            "longitude": "-99.65472"
        },
        {
            "city": "San Miguel Tenochtitl\u00e1n",
            "region": "15",
            "country": "MX",
            "latitude": "19.7525",
            "longitude": "-99.93083"
        },
        {
            "city": "San Mat\u00edas Tlalancaleca",
            "region": "21",
            "country": "MX",
            "latitude": "19.31667",
            "longitude": "-98.5"
        },
        {
            "city": "San Mateo Xoloc",
            "region": "15",
            "country": "MX",
            "latitude": "19.70139",
            "longitude": "-99.25194"
        },
        {
            "city": "San Mateo Tlaixpan",
            "region": "21",
            "country": "MX",
            "latitude": "18.9",
            "longitude": "-97.73333"
        },
        {
            "city": "San Mateo Texcalyacac",
            "region": "15",
            "country": "MX",
            "latitude": "19.16667",
            "longitude": "-99.46667"
        },
        {
            "city": "Mexicaltzingo",
            "region": "15",
            "country": "MX",
            "latitude": "19.20972",
            "longitude": "-99.58889"
        },
        {
            "city": "San Mateo Ixtacalco",
            "region": "15",
            "country": "MX",
            "latitude": "19.69972",
            "longitude": "-99.17833"
        },
        {
            "city": "San Mateo del Mar",
            "region": "20",
            "country": "MX",
            "latitude": "16.2",
            "longitude": "-95"
        },
        {
            "city": "San Mateo Atenco",
            "region": "15",
            "country": "MX",
            "latitude": "19.26167",
            "longitude": "-99.53528"
        },
        {
            "city": "San Mart\u00edn Xaltocan",
            "region": "29",
            "country": "MX",
            "latitude": "19.41667",
            "longitude": "-98.2"
        },
        {
            "city": "San Mart\u00edn Texmelucan de Labastida",
            "region": "21",
            "country": "MX",
            "latitude": "19.28333",
            "longitude": "-98.43333"
        },
        {
            "city": "San Mart\u00edn de las Pir\u00e1mides",
            "region": "15",
            "country": "MX",
            "latitude": "19.7",
            "longitude": "-98.83333"
        },
        {
            "city": "San Marcos Tlacoyalco",
            "region": "21",
            "country": "MX",
            "latitude": "18.65",
            "longitude": "-97.58333"
        },
        {
            "city": "San Marcos",
            "region": "30",
            "country": "MX",
            "latitude": "20.2",
            "longitude": "-96.95"
        },
        {
            "city": "San Marcos",
            "region": "13",
            "country": "MX",
            "latitude": "20.06667",
            "longitude": "-99.33333"
        },
        {
            "city": "San Marcos",
            "region": "12",
            "country": "MX",
            "latitude": "16.8",
            "longitude": "-99.35"
        },
        {
            "city": "San Luis Teolocholco",
            "region": "29",
            "country": "MX",
            "latitude": "19.25",
            "longitude": "-98.18333"
        },
        {
            "city": "San Lucas Ojitl\u00e1n",
            "region": "20",
            "country": "MX",
            "latitude": "18.06667",
            "longitude": "-96.38333"
        },
        {
            "city": "San Lorenzo Oyamel",
            "region": "15",
            "country": "MX",
            "latitude": "19.42806",
            "longitude": "-99.58083"
        },
        {
            "city": "San Lorenzo Chiautzingo",
            "region": "21",
            "country": "MX",
            "latitude": "19.2",
            "longitude": "-98.46667"
        },
        {
            "city": "San Lorenzo Almecatla",
            "region": "21",
            "country": "MX",
            "latitude": "19.13333",
            "longitude": "-98.23333"
        },
        {
            "city": "San Juan Xiutetelco",
            "region": "21",
            "country": "MX",
            "latitude": "19.8",
            "longitude": "-97.33333"
        },
        {
            "city": "San Juan Tianguismanalco",
            "region": "21",
            "country": "MX",
            "latitude": "18.95",
            "longitude": "-98.43333"
        },
        {
            "city": "San Juan Tepa",
            "region": "13",
            "country": "MX",
            "latitude": "20.21667",
            "longitude": "-99.06667"
        },
        {
            "city": "San Juan Teotihuac\u00e1n",
            "region": "15",
            "country": "MX",
            "latitude": "19.68333",
            "longitude": "-98.86667"
        },
        {
            "city": "San Juan Ixcaquixtla",
            "region": "21",
            "country": "MX",
            "latitude": "18.45",
            "longitude": "-97.81667"
        },
        {
            "city": "San Juan Guichicovi",
            "region": "20",
            "country": "MX",
            "latitude": "16.96667",
            "longitude": "-95.1"
        },
        {
            "city": "San Juan Guelav\u00eda",
            "region": "20",
            "country": "MX",
            "latitude": "16.95",
            "longitude": "-96.55"
        },
        {
            "city": "San Juan Evangelista",
            "region": "30",
            "country": "MX",
            "latitude": "17.9",
            "longitude": "-95.13333"
        },
        {
            "city": "San Juan del R\u00edo",
            "region": "22",
            "country": "MX",
            "latitude": "20.38333",
            "longitude": "-100"
        },
        {
            "city": "San Juan de las Huertas",
            "region": "15",
            "country": "MX",
            "latitude": "19.24639",
            "longitude": "-99.76056"
        },
        {
            "city": "San Juan Cacahuatepec",
            "region": "20",
            "country": "MX",
            "latitude": "16.61667",
            "longitude": "-98.15"
        },
        {
            "city": "San Juan Bautista Valle Nacional",
            "region": "20",
            "country": "MX",
            "latitude": "17.78333",
            "longitude": "-96.31667"
        },
        {
            "city": "San Juan Bautista Tuxtepec",
            "region": "20",
            "country": "MX",
            "latitude": "18.1",
            "longitude": "-96.11667"
        },
        {
            "city": "San Juan Bautista Cuicatl\u00e1n",
            "region": "20",
            "country": "MX",
            "latitude": "17.8",
            "longitude": "-96.96667"
        },
        {
            "city": "San Juan Amecac",
            "region": "21",
            "country": "MX",
            "latitude": "18.81667",
            "longitude": "-98.65"
        },
        {
            "city": "San Jos\u00e9 Miahuatl\u00e1n",
            "region": "21",
            "country": "MX",
            "latitude": "18.28333",
            "longitude": "-97.28333"
        },
        {
            "city": "San Jos\u00e9 Chiltepec",
            "region": "20",
            "country": "MX",
            "latitude": "17.95",
            "longitude": "-96.18333"
        },
        {
            "city": "San Jos\u00e9 Chiapa",
            "region": "21",
            "country": "MX",
            "latitude": "19.25",
            "longitude": "-97.76667"
        },
        {
            "city": "San Jos\u00e9 Acateno",
            "region": "21",
            "country": "MX",
            "latitude": "20.13333",
            "longitude": "-97.2"
        },
        {
            "city": "San Jer\u00f3nimo Ocotitl\u00e1n",
            "region": "21",
            "country": "MX",
            "latitude": "19.03333",
            "longitude": "-97.95"
        },
        {
            "city": "San Jacinto Ocotl\u00e1n",
            "region": "20",
            "country": "MX",
            "latitude": "16.8",
            "longitude": "-96.71667"
        },
        {
            "city": "San Hip\u00f3lito Xochiltenango",
            "region": "21",
            "country": "MX",
            "latitude": "18.93333",
            "longitude": "-97.85"
        },
        {
            "city": "San Gregorio Atzompa",
            "region": "21",
            "country": "MX",
            "latitude": "19.03333",
            "longitude": "-98.33333"
        },
        {
            "city": "San Gaspar Tonatico",
            "region": "15",
            "country": "MX",
            "latitude": "18.78333",
            "longitude": "-99.68333"
        },
        {
            "city": "San Gabriel Mixtepec",
            "region": "20",
            "country": "MX",
            "latitude": "16.08333",
            "longitude": "-97.1"
        },
        {
            "city": "San Gabriel Chilac",
            "region": "21",
            "country": "MX",
            "latitude": "18.31667",
            "longitude": "-97.35"
        },
        {
            "city": "San Gabriel Casa Blanca",
            "region": "20",
            "country": "MX",
            "latitude": "18.15",
            "longitude": "-97.13333"
        },
        {
            "city": "San Francisco Zacacalco",
            "region": "15",
            "country": "MX",
            "latitude": "19.93333",
            "longitude": "-98.98333"
        },
        {
            "city": "San Francisco Tlalcilalcalpan",
            "region": "15",
            "country": "MX",
            "latitude": "19.29278",
            "longitude": "-99.77778"
        },
        {
            "city": "San Francisco Telixtlahuaca",
            "region": "20",
            "country": "MX",
            "latitude": "17.3",
            "longitude": "-96.9"
        },
        {
            "city": "San Francisco del Mar",
            "region": "20",
            "country": "MX",
            "latitude": "16.23333",
            "longitude": "-94.65"
        },
        {
            "city": "San Francisco Atezcatzinco",
            "region": "29",
            "country": "MX",
            "latitude": "19.46667",
            "longitude": "-98.13333"
        },
        {
            "city": "San Francisco Acuautla",
            "region": "15",
            "country": "MX",
            "latitude": "19.33333",
            "longitude": "-98.85"
        },
        {
            "city": "San Fernando",
            "region": "05",
            "country": "MX",
            "latitude": "16.86667",
            "longitude": "-93.21667"
        },
        {
            "city": "San Felipe Usila",
            "region": "20",
            "country": "MX",
            "latitude": "17.8975",
            "longitude": "-96.53111"
        },
        {
            "city": "San Felipe Teotlalcingo",
            "region": "21",
            "country": "MX",
            "latitude": "19.23333",
            "longitude": "-98.48333"
        },
        {
            "city": "San Felipe Jalapa de D\u00edaz",
            "region": "20",
            "country": "MX",
            "latitude": "18.06667",
            "longitude": "-96.53333"
        },
        {
            "city": "San Felipe Ixtacuixtla",
            "region": "29",
            "country": "MX",
            "latitude": "19.33333",
            "longitude": "-98.36667"
        },
        {
            "city": "San Felipe del Progreso",
            "region": "15",
            "country": "MX",
            "latitude": "19.71278",
            "longitude": "-99.95194"
        },
        {
            "city": "San Dionisio Ocotepec",
            "region": "20",
            "country": "MX",
            "latitude": "16.8",
            "longitude": "-96.4"
        },
        {
            "city": "San Dionisio del Mar",
            "region": "20",
            "country": "MX",
            "latitude": "16.33333",
            "longitude": "-94.75"
        },
        {
            "city": "San Dieguito Xochimanca",
            "region": "15",
            "country": "MX",
            "latitude": "19.48333",
            "longitude": "-98.81667"
        },
        {
            "city": "Sanct\u00f3rum",
            "region": "29",
            "country": "MX",
            "latitude": "19.5",
            "longitude": "-98.46667"
        },
        {
            "city": "Sanct\u00f3rum",
            "region": "21",
            "country": "MX",
            "latitude": "19.1",
            "longitude": "-98.25"
        },
        {
            "city": "San Crist\u00f3bal de Las Casas",
            "region": "05",
            "country": "MX",
            "latitude": "16.75",
            "longitude": "-92.63333"
        },
        {
            "city": "San Crist\u00f3bal Amatl\u00e1n",
            "region": "20",
            "country": "MX",
            "latitude": "16.31667",
            "longitude": "-96.4"
        },
        {
            "city": "San Ciro de Acosta",
            "region": "24",
            "country": "MX",
            "latitude": "21.63333",
            "longitude": "-99.81667"
        },
        {
            "city": "San Carlos",
            "region": "27",
            "country": "MX",
            "latitude": "17.55",
            "longitude": "-91.15"
        },
        {
            "city": "San Buenaventura",
            "region": "15",
            "country": "MX",
            "latitude": "19.26889",
            "longitude": "-99.69639"
        },
        {
            "city": "San Bernab\u00e9 Amaxac de Guerrero",
            "region": "29",
            "country": "MX",
            "latitude": "19.36667",
            "longitude": "-98.18333"
        },
        {
            "city": "San Bartolo Teontepec",
            "region": "21",
            "country": "MX",
            "latitude": "18.5",
            "longitude": "-97.51667"
        },
        {
            "city": "San Bartolom\u00e9 Ayautla",
            "region": "20",
            "country": "MX",
            "latitude": "18.03333",
            "longitude": "-96.66667"
        },
        {
            "city": "San Bartolo del Llano",
            "region": "15",
            "country": "MX",
            "latitude": "19.59083",
            "longitude": "-99.74389"
        },
        {
            "city": "San Bartolo Cuautlalpan",
            "region": "15",
            "country": "MX",
            "latitude": "19.8151",
            "longitude": "-99.01044"
        },
        {
            "city": "San Baltazar Chichicapan",
            "region": "20",
            "country": "MX",
            "latitude": "16.75",
            "longitude": "-96.48333"
        },
        {
            "city": "San Aparicio",
            "region": "21",
            "country": "MX",
            "latitude": "19.1",
            "longitude": "-98.15"
        },
        {
            "city": "San Andr\u00e9s Tuxtla",
            "region": "30",
            "country": "MX",
            "latitude": "18.45",
            "longitude": "-95.21667"
        },
        {
            "city": "San Andr\u00e9s Huayapan",
            "region": "20",
            "country": "MX",
            "latitude": "17.1",
            "longitude": "-96.66667"
        },
        {
            "city": "San Andr\u00e9s Huaxpaltepec",
            "region": "20",
            "country": "MX",
            "latitude": "16.31667",
            "longitude": "-97.93333"
        },
        {
            "city": "San Andr\u00e9s Calpan",
            "region": "21",
            "country": "MX",
            "latitude": "19.1",
            "longitude": "-98.45"
        },
        {
            "city": "San Agust\u00edn Tlaxiaca",
            "region": "13",
            "country": "MX",
            "latitude": "20.11667",
            "longitude": "-98.88333"
        },
        {
            "city": "Salto de Agua",
            "region": "05",
            "country": "MX",
            "latitude": "17.61667",
            "longitude": "-92.36667"
        },
        {
            "city": "Saltabarranca",
            "region": "30",
            "country": "MX",
            "latitude": "18.6",
            "longitude": "-95.53333"
        },
        {
            "city": "Salitrillo",
            "region": "15",
            "country": "MX",
            "latitude": "19.43333",
            "longitude": "-99.85"
        },
        {
            "city": "Salina Cruz",
            "region": "20",
            "country": "MX",
            "latitude": "16.16667",
            "longitude": "-95.2"
        },
        {
            "city": "Sacalum",
            "region": "31",
            "country": "MX",
            "latitude": "20.48333",
            "longitude": "-89.58333"
        },
        {
            "city": "Sabancuy",
            "region": "04",
            "country": "MX",
            "latitude": "18.96667",
            "longitude": "-91.18333"
        },
        {
            "city": "R\u00edo Verde",
            "region": "24",
            "country": "MX",
            "latitude": "21.93333",
            "longitude": "-99.98333"
        },
        {
            "city": "R\u00edo Lagartos",
            "region": "31",
            "country": "MX",
            "latitude": "21.6",
            "longitude": "-88.16667"
        },
        {
            "city": "R\u00edo Fr\u00edo",
            "region": "15",
            "country": "MX",
            "latitude": "19.35",
            "longitude": "-98.66667"
        },
        {
            "city": "R\u00edo Bravo",
            "region": "28",
            "country": "MX",
            "latitude": "25.98333",
            "longitude": "-98.1"
        },
        {
            "city": "R\u00edo Blanco",
            "region": "30",
            "country": "MX",
            "latitude": "18.83333",
            "longitude": "-97.15"
        },
        {
            "city": "Rinc\u00f3n Viejo",
            "region": "20",
            "country": "MX",
            "latitude": "16.9",
            "longitude": "-95.05"
        },
        {
            "city": "Rinconada",
            "region": "30",
            "country": "MX",
            "latitude": "19.35",
            "longitude": "-96.51667"
        },
        {
            "city": "Reynosa",
            "region": "28",
            "country": "MX",
            "latitude": "26.08333",
            "longitude": "-98.28333"
        },
        {
            "city": "Ray\u00f3n",
            "region": "24",
            "country": "MX",
            "latitude": "21.85",
            "longitude": "-99.66667"
        },
        {
            "city": "Ray\u00f3n",
            "region": "05",
            "country": "MX",
            "latitude": "17.2",
            "longitude": "-93"
        },
        {
            "city": "Rafael Lucio",
            "region": "30",
            "country": "MX",
            "latitude": "19.58333",
            "longitude": "-96.96667"
        },
        {
            "city": "Rafael Lara Grajales",
            "region": "21",
            "country": "MX",
            "latitude": "19.25",
            "longitude": "-97.78333"
        },
        {
            "city": "Rafael J. Garc\u00eda",
            "region": "21",
            "country": "MX",
            "latitude": "19.25",
            "longitude": "-97.16667"
        },
        {
            "city": "Rafael Delgado",
            "region": "30",
            "country": "MX",
            "latitude": "18.8",
            "longitude": "-97.06667"
        },
        {
            "city": "Quechultenango",
            "region": "12",
            "country": "MX",
            "latitude": "17.41667",
            "longitude": "-99.21667"
        },
        {
            "city": "Quecholac",
            "region": "21",
            "country": "MX",
            "latitude": "18.95",
            "longitude": "-97.66667"
        },
        {
            "city": "Putla de Guerrero",
            "region": "20",
            "country": "MX",
            "latitude": "17.03333",
            "longitude": "-97.93333"
        },
        {
            "city": "Puerto Madero",
            "region": "05",
            "country": "MX",
            "latitude": "14.72076",
            "longitude": "-92.42146"
        },
        {
            "city": "Puerto Escondido",
            "region": "20",
            "country": "MX",
            "latitude": "15.85",
            "longitude": "-97.06667"
        },
        {
            "city": "Puente de Ixtla",
            "region": "17",
            "country": "MX",
            "latitude": "18.61472",
            "longitude": "-99.31806"
        },
        {
            "city": "Pueblo Nuevo Solistahuac\u00e1n",
            "region": "05",
            "country": "MX",
            "latitude": "17.1",
            "longitude": "-92.88333"
        },
        {
            "city": "Pueblo Nuevo",
            "region": "15",
            "country": "MX",
            "latitude": "19.67306",
            "longitude": "-99.62222"
        },
        {
            "city": "Puebla de Zaragoza",
            "region": "21",
            "country": "MX",
            "latitude": "19.05",
            "longitude": "-98.2"
        },
        {
            "city": "Progreso de Obreg\u00f3n",
            "region": "13",
            "country": "MX",
            "latitude": "20.25",
            "longitude": "-99.2"
        },
        {
            "city": "Progreso",
            "region": "31",
            "country": "MX",
            "latitude": "21.28333",
            "longitude": "-89.66667"
        },
        {
            "city": "Progreso Industrial",
            "region": "15",
            "country": "MX",
            "latitude": "19.62861",
            "longitude": "-99.35611"
        },
        {
            "city": "Poza Rica de Hidalgo",
            "region": "30",
            "country": "MX",
            "latitude": "20.53315",
            "longitude": "-97.45946"
        },
        {
            "city": "Potrero del Llano",
            "region": "30",
            "country": "MX",
            "latitude": "21.05",
            "longitude": "-97.68333"
        },
        {
            "city": "Pomuch",
            "region": "04",
            "country": "MX",
            "latitude": "20.13333",
            "longitude": "-90.18333"
        },
        {
            "city": "Polanco",
            "region": "09",
            "country": "MX",
            "latitude": "19.41667",
            "longitude": "-99.2"
        },
        {
            "city": "Playa Vicente",
            "region": "30",
            "country": "MX",
            "latitude": "17.83333",
            "longitude": "-95.81667"
        },
        {
            "city": "Playa del Carmen",
            "region": "23",
            "country": "MX",
            "latitude": "20.6274",
            "longitude": "-87.07987"
        },
        {
            "city": "Plat\u00f3n S\u00e1nchez",
            "region": "30",
            "country": "MX",
            "latitude": "21.28333",
            "longitude": "-98.36667"
        },
        {
            "city": "Pist\u00e9",
            "region": "31",
            "country": "MX",
            "latitude": "20.7",
            "longitude": "-88.58333"
        },
        {
            "city": "Pinotepa de Don Luis",
            "region": "20",
            "country": "MX",
            "latitude": "16.41667",
            "longitude": "-97.91667"
        },
        {
            "city": "Pijijiapan",
            "region": "05",
            "country": "MX",
            "latitude": "15.70105",
            "longitude": "-93.22998"
        },
        {
            "city": "Piedras Negras",
            "region": "30",
            "country": "MX",
            "latitude": "18.76667",
            "longitude": "-96.18333"
        },
        {
            "city": "Pichucalco",
            "region": "05",
            "country": "MX",
            "latitude": "17.51667",
            "longitude": "-93.06667"
        },
        {
            "city": "Peto",
            "region": "31",
            "country": "MX",
            "latitude": "20.13333",
            "longitude": "-88.91667"
        },
        {
            "city": "Petaquillas",
            "region": "12",
            "country": "MX",
            "latitude": "17.5",
            "longitude": "-99.46667"
        },
        {
            "city": "Petalcingo",
            "region": "05",
            "country": "MX",
            "latitude": "17.28333",
            "longitude": "-92.45"
        },
        {
            "city": "Perote",
            "region": "30",
            "country": "MX",
            "latitude": "19.56667",
            "longitude": "-97.23333"
        },
        {
            "city": "Paso de Ovejas",
            "region": "30",
            "country": "MX",
            "latitude": "19.28333",
            "longitude": "-96.43333"
        },
        {
            "city": "Paso del Toro",
            "region": "30",
            "country": "MX",
            "latitude": "19.03333",
            "longitude": "-96.11667"
        },
        {
            "city": "Paso del Macho",
            "region": "30",
            "country": "MX",
            "latitude": "18.96667",
            "longitude": "-96.71667"
        },
        {
            "city": "Pared\u00f3n",
            "region": "05",
            "country": "MX",
            "latitude": "16.03333",
            "longitude": "-93.86667"
        },
        {
            "city": "Para\u00edso",
            "region": "27",
            "country": "MX",
            "latitude": "18.4",
            "longitude": "-93.23333"
        },
        {
            "city": "Papantla de Olarte",
            "region": "30",
            "country": "MX",
            "latitude": "20.45",
            "longitude": "-97.31667"
        },
        {
            "city": "Papalotla",
            "region": "15",
            "country": "MX",
            "latitude": "19.56667",
            "longitude": "-98.85"
        },
        {
            "city": "P\u00e1nuco",
            "region": "30",
            "country": "MX",
            "latitude": "22.05",
            "longitude": "-98.16667"
        },
        {
            "city": "Panotla",
            "region": "29",
            "country": "MX",
            "latitude": "19.31667",
            "longitude": "-98.26667"
        },
        {
            "city": "Panaba",
            "region": "31",
            "country": "MX",
            "latitude": "21.28333",
            "longitude": "-88.26667"
        },
        {
            "city": "Palomares",
            "region": "20",
            "country": "MX",
            "latitude": "17.15",
            "longitude": "-95.06667"
        },
        {
            "city": "Palmarito Tochap\u00e1n",
            "region": "21",
            "country": "MX",
            "latitude": "18.9",
            "longitude": "-97.61667"
        },
        {
            "city": "Palmar de Bravo",
            "region": "21",
            "country": "MX",
            "latitude": "18.83333",
            "longitude": "-97.56667"
        },
        {
            "city": "Palizada",
            "region": "04",
            "country": "MX",
            "latitude": "18.25",
            "longitude": "-92.08333"
        },
        {
            "city": "Palenque",
            "region": "05",
            "country": "MX",
            "latitude": "17.51667",
            "longitude": "-91.96667"
        },
        {
            "city": "Pajapan",
            "region": "30",
            "country": "MX",
            "latitude": "18.25",
            "longitude": "-94.7"
        },
        {
            "city": "Pahuatl\u00e1n del Valle",
            "region": "21",
            "country": "MX",
            "latitude": "20.28333",
            "longitude": "-98.15"
        },
        {
            "city": "Pachuquilla",
            "region": "13",
            "country": "MX",
            "latitude": "20.06667",
            "longitude": "-98.7"
        },
        {
            "city": "Pachuca de Soto",
            "region": "13",
            "country": "MX",
            "latitude": "20.11697",
            "longitude": "-98.73329"
        },
        {
            "city": "Ozumba de Alzate",
            "region": "15",
            "country": "MX",
            "latitude": "19.05",
            "longitude": "-98.8"
        },
        {
            "city": "Ozuluama",
            "region": "30",
            "country": "MX",
            "latitude": "21.66667",
            "longitude": "-97.85"
        },
        {
            "city": "Oxkutzcab",
            "region": "31",
            "country": "MX",
            "latitude": "20.3",
            "longitude": "-89.41667"
        },
        {
            "city": "Oxchuc",
            "region": "05",
            "country": "MX",
            "latitude": "16.85",
            "longitude": "-92.41667"
        },
        {
            "city": "Otumba de G\u00f3mez Far\u00edas",
            "region": "15",
            "country": "MX",
            "latitude": "19.7",
            "longitude": "-98.75"
        },
        {
            "city": "Oteapan",
            "region": "30",
            "country": "MX",
            "latitude": "18",
            "longitude": "-94.65"
        },
        {
            "city": "Otatitl\u00e1n",
            "region": "30",
            "country": "MX",
            "latitude": "18.2",
            "longitude": "-96.03333"
        },
        {
            "city": "Ostuac\u00e1n",
            "region": "05",
            "country": "MX",
            "latitude": "17.41667",
            "longitude": "-93.3"
        },
        {
            "city": "Orizatl\u00e1n",
            "region": "13",
            "country": "MX",
            "latitude": "21.18333",
            "longitude": "-98.61667"
        },
        {
            "city": "Orizaba",
            "region": "30",
            "country": "MX",
            "latitude": "18.85",
            "longitude": "-97.1"
        },
        {
            "city": "Oriental",
            "region": "21",
            "country": "MX",
            "latitude": "19.36667",
            "longitude": "-97.61667"
        },
        {
            "city": "Opich\u00e9n",
            "region": "31",
            "country": "MX",
            "latitude": "20.55",
            "longitude": "-89.85"
        },
        {
            "city": "Ometepec",
            "region": "12",
            "country": "MX",
            "latitude": "16.68333",
            "longitude": "-98.41667"
        },
        {
            "city": "Omealca",
            "region": "30",
            "country": "MX",
            "latitude": "18.75",
            "longitude": "-96.76667"
        },
        {
            "city": "Oluta",
            "region": "30",
            "country": "MX",
            "latitude": "17.91667",
            "longitude": "-94.9"
        },
        {
            "city": "Olinal\u00e1",
            "region": "12",
            "country": "MX",
            "latitude": "17.83333",
            "longitude": "-98.85"
        },
        {
            "city": "Ocuituco",
            "region": "17",
            "country": "MX",
            "latitude": "18.86667",
            "longitude": "-98.76667"
        },
        {
            "city": "Ocozocuautla",
            "region": "05",
            "country": "MX",
            "latitude": "16.76667",
            "longitude": "-93.36667"
        },
        {
            "city": "Ocoyoacac",
            "region": "15",
            "country": "MX",
            "latitude": "19.27194",
            "longitude": "-99.45889"
        },
        {
            "city": "Ocotl\u00e1n",
            "region": "21",
            "country": "MX",
            "latitude": "19.15",
            "longitude": "-98.26667"
        },
        {
            "city": "Ocotitl\u00e1n",
            "region": "15",
            "country": "MX",
            "latitude": "19.23333",
            "longitude": "-99.61667"
        },
        {
            "city": "Ocotepec",
            "region": "05",
            "country": "MX",
            "latitude": "17.21667",
            "longitude": "-93.15"
        },
        {
            "city": "Ocosingo",
            "region": "05",
            "country": "MX",
            "latitude": "17.06667",
            "longitude": "-92.25"
        },
        {
            "city": "Ocampo",
            "region": "28",
            "country": "MX",
            "latitude": "22.83333",
            "longitude": "-99.33333"
        },