{
    "country": "Poland",
    "code": "PL",
    "cities": [
        {
            "city": "\u017byrzyn",
            "region": "75",
            "country": "PL",
            "latitude": "51.49918",
            "longitude": "22.0917"
        },
        {
            "city": "\u017byrard\u00f3w",
            "region": "78",
            "country": "PL",
            "latitude": "52.0488",
            "longitude": "20.44599"
        },
        {
            "city": "\u017byrak\u00f3w",
            "region": "80",
            "country": "PL",
            "latitude": "50.08545",
            "longitude": "21.39622"
        },
        {
            "city": "Zwole\u0144",
            "region": "78",
            "country": "PL",
            "latitude": "51.35542",
            "longitude": "21.58768"
        },
        {
            "city": "Zwierzyniec",
            "region": "75",
            "country": "PL",
            "latitude": "50.614",
            "longitude": "22.97512"
        },
        {
            "city": "\u017burowa",
            "region": "77",
            "country": "PL",
            "latitude": "49.82636",
            "longitude": "21.16894"
        },
        {
            "city": "\u017burawiczki",
            "region": "80",
            "country": "PL",
            "latitude": "50.0137",
            "longitude": "22.49949"
        },
        {
            "city": "\u017burawica",
            "region": "80",
            "country": "PL",
            "latitude": "49.82348",
            "longitude": "22.78925"
        },
        {
            "city": "\u017bo\u0142ynia",
            "region": "80",
            "country": "PL",
            "latitude": "50.162",
            "longitude": "22.30825"
        },
        {
            "city": "\u017b\u00f3\u0142kiewka",
            "region": "75",
            "country": "PL",
            "latitude": "50.90991",
            "longitude": "22.83465"
        },
        {
            "city": "Zmiennica",
            "region": "80",
            "country": "PL",
            "latitude": "49.67652",
            "longitude": "21.96596"
        },
        {
            "city": "Z\u0142ota",
            "region": "84",
            "country": "PL",
            "latitude": "50.3816",
            "longitude": "20.59361"
        },
        {
            "city": "Z\u0142ota",
            "region": "77",
            "country": "PL",
            "latitude": "49.88059",
            "longitude": "20.69326"
        },
        {
            "city": "Zielonka",
            "region": "78",
            "country": "PL",
            "latitude": "52.30376",
            "longitude": "21.16018"
        },
        {
            "city": "Zg\u0142obie\u0144",
            "region": "80",
            "country": "PL",
            "latitude": "50.0127",
            "longitude": "21.8549"
        },
        {
            "city": "\u017belech\u00f3w",
            "region": "78",
            "country": "PL",
            "latitude": "51.81051",
            "longitude": "21.89721"
        },
        {
            "city": "\u017belechlinek",
            "region": "74",
            "country": "PL",
            "latitude": "51.71214",
            "longitude": "20.0346"
        },
        {
            "city": "\u017begocina",
            "region": "77",
            "country": "PL",
            "latitude": "49.81395",
            "longitude": "20.41964"
        },
        {
            "city": "Zbuczyn",
            "region": "78",
            "country": "PL",
            "latitude": "52.08974",
            "longitude": "22.43829"
        },
        {
            "city": "Zb\u00f3jna",
            "region": "81",
            "country": "PL",
            "latitude": "53.24293",
            "longitude": "21.78812"
        },
        {
            "city": "Zawichost",
            "region": "84",
            "country": "PL",
            "latitude": "50.80743",
            "longitude": "21.85408"
        },
        {
            "city": "Zatory",
            "region": "78",
            "country": "PL",
            "latitude": "52.59929",
            "longitude": "21.18258"
        },
        {
            "city": "Zarzecze",
            "region": "80",
            "country": "PL",
            "latitude": "50.52767",
            "longitude": "22.19522"
        },
        {
            "city": "Zarzecze",
            "region": "80",
            "country": "PL",
            "latitude": "49.98633",
            "longitude": "22.53716"
        },
        {
            "city": "Zarszyn",
            "region": "80",
            "country": "PL",
            "latitude": "49.58178",
            "longitude": "22.01283"
        },
        {
            "city": "\u017barn\u00f3w",
            "region": "74",
            "country": "PL",
            "latitude": "51.24607",
            "longitude": "20.17476"
        },
        {
            "city": "Zamo\u015b\u0107",
            "region": "75",
            "country": "PL",
            "latitude": "50.72314",
            "longitude": "23.25196"
        },
        {
            "city": "Zamch",
            "region": "75",
            "country": "PL",
            "latitude": "50.31713",
            "longitude": "23.02786"
        },
        {
            "city": "Zambr\u00f3w",
            "region": "81",
            "country": "PL",
            "latitude": "52.9855",
            "longitude": "22.24319"
        },
        {
            "city": "Za\u0142uski",
            "region": "78",
            "country": "PL",
            "latitude": "52.51152",
            "longitude": "20.52864"
        },
        {
            "city": "Zaleszany",
            "region": "80",
            "country": "PL",
            "latitude": "50.64799",
            "longitude": "21.89069"
        },
        {
            "city": "Zalesie G\u00f3rne",
            "region": "78",
            "country": "PL",
            "latitude": "52.02768",
            "longitude": "21.03659"
        },
        {
            "city": "Zalesie",
            "region": "75",
            "country": "PL",
            "latitude": "52.03743",
            "longitude": "23.3636"
        },
        {
            "city": "Zakrz\u00f3wek",
            "region": "75",
            "country": "PL",
            "latitude": "50.95124",
            "longitude": "22.38138"
        },
        {
            "city": "Zakrzew",
            "region": "78",
            "country": "PL",
            "latitude": "51.44095",
            "longitude": "21.00105"
        },
        {
            "city": "Zakrzew",
            "region": "75",
            "country": "PL",
            "latitude": "50.89004",
            "longitude": "22.59115"
        },
        {
            "city": "Zakroczym",
            "region": "78",
            "country": "PL",
            "latitude": "52.43351",
            "longitude": "20.61207"
        },
        {
            "city": "Zaklik\u00f3w",
            "region": "80",
            "country": "PL",
            "latitude": "50.75769",
            "longitude": "22.10226"
        },
        {
            "city": "Zakliczyn",
            "region": "77",
            "country": "PL",
            "latitude": "49.85589",
            "longitude": "20.80935"
        },
        {
            "city": "Zag\u00f3rzyce",
            "region": "80",
            "country": "PL",
            "latitude": "50.0169",
            "longitude": "21.67517"
        },
        {
            "city": "Zag\u00f3rz",
            "region": "80",
            "country": "PL",
            "latitude": "49.51457",
            "longitude": "22.26706"
        },
        {
            "city": "Zagna\u0144sk",
            "region": "84",
            "country": "PL",
            "latitude": "50.98037",
            "longitude": "20.66314"
        },
        {
            "city": "\u017babno",
            "region": "77",
            "country": "PL",
            "latitude": "50.13334",
            "longitude": "20.88615"
        },
        {
            "city": "Zab\u0142ud\u00f3w",
            "region": "81",
            "country": "PL",
            "latitude": "53.01442",
            "longitude": "23.33831"
        },
        {
            "city": "Z\u0105bki",
            "region": "78",
            "country": "PL",
            "latitude": "52.29271",
            "longitude": "21.10539"
        },
        {
            "city": "Zabierz\u00f3w Boche\u0144ski",
            "region": "77",
            "country": "PL",
            "latitude": "50.06821",
            "longitude": "20.31896"
        },
        {
            "city": "\u017babieniec",
            "region": "78",
            "country": "PL",
            "latitude": "52.05856",
            "longitude": "21.04817"
        },
        {
            "city": "\u017babia Wola",
            "region": "74",
            "country": "PL",
            "latitude": "52.03169",
            "longitude": "20.69112"
        },
        {
            "city": "Wyszogr\u00f3d",
            "region": "78",
            "country": "PL",
            "latitude": "52.38988",
            "longitude": "20.19081"
        },
        {
            "city": "Wyszk\u00f3w",
            "region": "78",
            "country": "PL",
            "latitude": "52.59278",
            "longitude": "21.4584"
        },
        {
            "city": "Wyszki",
            "region": "81",
            "country": "PL",
            "latitude": "52.84129",
            "longitude": "22.98119"
        },
        {
            "city": "Wysokie Mazowieckie",
            "region": "81",
            "country": "PL",
            "latitude": "52.91661",
            "longitude": "22.51712"
        },
        {
            "city": "Wysokie",
            "region": "75",
            "country": "PL",
            "latitude": "50.91093",
            "longitude": "22.666"
        },
        {
            "city": "Wysoka Strzy\u017cowska",
            "region": "80",
            "country": "PL",
            "latitude": "49.83056",
            "longitude": "21.74074"
        },
        {
            "city": "Wysoka G\u0142ogowska",
            "region": "80",
            "country": "PL",
            "latitude": "50.16019",
            "longitude": "22.02124"
        },
        {
            "city": "Wysoka",
            "region": "80",
            "country": "PL",
            "latitude": "50.04474",
            "longitude": "22.26002"
        },
        {
            "city": "Wy\u015bmierzyce",
            "region": "78",
            "country": "PL",
            "latitude": "51.62494",
            "longitude": "20.81394"
        },
        {
            "city": "Wydminy",
            "region": "85",
            "country": "PL",
            "latitude": "53.98194",
            "longitude": "22.03239"
        },
        {
            "city": "Wo\u0142omin",
            "region": "78",
            "country": "PL",
            "latitude": "52.34006",
            "longitude": "21.24207"
        },
        {
            "city": "W\u00f3lka Tanewska",
            "region": "80",
            "country": "PL",
            "latitude": "50.50005",
            "longitude": "22.26113"
        },
        {
            "city": "W\u00f3lka Podle\u015bna",
            "region": "80",
            "country": "PL",
            "latitude": "50.11785",
            "longitude": "22.11213"
        },
        {
            "city": "W\u00f3lka Pe\u0142ki\u0144ska",
            "region": "80",
            "country": "PL",
            "latitude": "50.09553",
            "longitude": "22.62342"
        },
        {
            "city": "W\u00f3lka Nied\u017awiedzka",
            "region": "80",
            "country": "PL",
            "latitude": "50.24226",
            "longitude": "22.18826"
        },
        {
            "city": "Wola \u017barczycka",
            "region": "80",
            "country": "PL",
            "latitude": "50.2912",
            "longitude": "22.25023"
        },
        {
            "city": "Wola Zabierzowska",
            "region": "77",
            "country": "PL",
            "latitude": "50.07257",
            "longitude": "20.33217"
        },
        {
            "city": "Wola Uhruska",
            "region": "75",
            "country": "PL",
            "latitude": "51.32139",
            "longitude": "23.62627"
        },
        {
            "city": "Wola Sernicka",
            "region": "75",
            "country": "PL",
            "latitude": "51.44978",
            "longitude": "22.68351"
        },
        {
            "city": "Wola R\u0119bkowska",
            "region": "78",
            "country": "PL",
            "latitude": "51.90181",
            "longitude": "21.55818"
        },
        {
            "city": "Wolan\u00f3w",
            "region": "78",
            "country": "PL",
            "latitude": "51.3803",
            "longitude": "20.97702"
        },
        {
            "city": "Wola Jachowa",
            "region": "84",
            "country": "PL",
            "latitude": "50.84524",
            "longitude": "20.85814"
        },
        {
            "city": "Wola D\u0119bi\u0144ska",
            "region": "77",
            "country": "PL",
            "latitude": "49.98214",
            "longitude": "20.68777"
        },
        {
            "city": "Wola Batorska",
            "region": "77",
            "country": "PL",
            "latitude": "50.05262",
            "longitude": "20.26617"
        },
        {
            "city": "Wojs\u0142awice",
            "region": "75",
            "country": "PL",
            "latitude": "50.91916",
            "longitude": "23.54602"
        },
        {
            "city": "Wojnicz",
            "region": "77",
            "country": "PL",
            "latitude": "49.958",
            "longitude": "20.83785"
        },
        {
            "city": "Wojcieszk\u00f3w",
            "region": "75",
            "country": "PL",
            "latitude": "51.76922",
            "longitude": "22.31589"
        },
        {
            "city": "Wojciechowice",
            "region": "84",
            "country": "PL",
            "latitude": "50.84226",
            "longitude": "21.58942"
        },
        {
            "city": "Wojciech\u00f3w",
            "region": "75",
            "country": "PL",
            "latitude": "51.23543",
            "longitude": "22.24551"
        },
        {
            "city": "Wojasz\u00f3wka",
            "region": "80",
            "country": "PL",
            "latitude": "49.77777",
            "longitude": "21.67079"
        },
        {
            "city": "Wohy\u0144",
            "region": "75",
            "country": "PL",
            "latitude": "51.75642",
            "longitude": "22.78582"
        },
        {
            "city": "Wodzis\u0142aw",
            "region": "84",
            "country": "PL",
            "latitude": "50.52047",
            "longitude": "20.1915"
        },
        {
            "city": "Wodynie",
            "region": "78",
            "country": "PL",
            "latitude": "52.0404",
            "longitude": "21.95575"
        },
        {
            "city": "W\u0142odawa",
            "region": "75",
            "country": "PL",
            "latitude": "51.55",
            "longitude": "23.55"
        },
        {
            "city": "Wizna",
            "region": "81",
            "country": "PL",
            "latitude": "53.19518",
            "longitude": "22.38241"
        },
        {
            "city": "Wisznice",
            "region": "75",
            "country": "PL",
            "latitude": "51.78924",
            "longitude": "23.20836"
        },
        {
            "city": "Wi\u015bniowa",
            "region": "80",
            "country": "PL",
            "latitude": "49.86897",
            "longitude": "21.65508"
        },
        {
            "city": "Wi\u015bniowa",
            "region": "77",
            "country": "PL",
            "latitude": "49.7878",
            "longitude": "20.11502"
        },
        {
            "city": "Wi\u015bniew",
            "region": "78",
            "country": "PL",
            "latitude": "52.07265",
            "longitude": "22.29392"
        },
        {
            "city": "Wi\u015blica",
            "region": "84",
            "country": "PL",
            "latitude": "50.34891",
            "longitude": "20.67438"
        },
        {
            "city": "Wiskitki",
            "region": "78",
            "country": "PL",
            "latitude": "52.08831",
            "longitude": "20.38708"
        },
        {
            "city": "Winnica",
            "region": "78",
            "country": "PL",
            "latitude": "52.64306",
            "longitude": "20.94114"
        },
        {
            "city": "Wilk\u00f3w",
            "region": "75",
            "country": "PL",
            "latitude": "51.26224",
            "longitude": "21.87756"
        },
        {
            "city": "Wilko\u0142az",
            "region": "75",
            "country": "PL",
            "latitude": "51.01473",
            "longitude": "22.35014"
        },
        {
            "city": "Wilga",
            "region": "78",
            "country": "PL",
            "latitude": "51.85211",
            "longitude": "21.37751"
        },
        {
            "city": "Wilczyce",
            "region": "84",
            "country": "PL",
            "latitude": "50.74694",
            "longitude": "21.65783"
        },
        {
            "city": "Wietrzychowice",
            "region": "77",
            "country": "PL",
            "latitude": "50.19097",
            "longitude": "20.76502"
        },
        {
            "city": "Wierzchos\u0142awice",
            "region": "77",
            "country": "PL",
            "latitude": "50.02478",
            "longitude": "20.85677"
        },
        {
            "city": "Wierzbno",
            "region": "78",
            "country": "PL",
            "latitude": "52.31008",
            "longitude": "21.85902"
        },
        {
            "city": "Wierzbna",
            "region": "80",
            "country": "PL",
            "latitude": "50.03311",
            "longitude": "22.60128"
        },
        {
            "city": "Wierzbica",
            "region": "78",
            "country": "PL",
            "latitude": "51.2494",
            "longitude": "21.08259"
        },
        {
            "city": "Wierzawice",
            "region": "80",
            "country": "PL",
            "latitude": "50.23623",
            "longitude": "22.4509"
        },
        {
            "city": "Wieniawa",
            "region": "78",
            "country": "PL",
            "latitude": "51.36171",
            "longitude": "20.79489"
        },
        {
            "city": "Wielopole Skrzy\u0144skie",
            "region": "80",
            "country": "PL",
            "latitude": "49.94564",
            "longitude": "21.61491"
        },
        {
            "city": "Wielkie Oczy",
            "region": "80",
            "country": "PL",
            "latitude": "50.02357",
            "longitude": "23.16407"
        },
        {
            "city": "Wielka Wie\u015b",
            "region": "84",
            "country": "PL",
            "latitude": "51.07107",
            "longitude": "20.96655"
        },
        {
            "city": "Wielka Wie\u015b",
            "region": "77",
            "country": "PL",
            "latitude": "49.93631",
            "longitude": "20.82304"
        },
        {
            "city": "Wieliszew",
            "region": "78",
            "country": "PL",
            "latitude": "52.4513",
            "longitude": "20.96827"
        },
        {
            "city": "Wieliczka",
            "region": "77",
            "country": "PL",
            "latitude": "49.98738",
            "longitude": "20.06473"
        },
        {
            "city": "Wielbark",
            "region": "85",
            "country": "PL",
            "latitude": "53.39858",
            "longitude": "20.94629"
        },
        {
            "city": "Wieczfnia Ko\u015bcielna",
            "region": "78",
            "country": "PL",
            "latitude": "53.19534",
            "longitude": "20.47637"
        },
        {
            "city": "Wi\u0105zownica",
            "region": "80",
            "country": "PL",
            "latitude": "50.08066",
            "longitude": "22.70668"
        },
        {
            "city": "Weso\u0142a",
            "region": "80",
            "country": "PL",
            "latitude": "49.79977",
            "longitude": "22.10029"
        },
        {
            "city": "Werbkowice",
            "region": "75",
            "country": "PL",
            "latitude": "50.75373",
            "longitude": "23.76411"
        },
        {
            "city": "W\u0119grzce Wielkie",
            "region": "77",
            "country": "PL",
            "latitude": "50.01491",
            "longitude": "20.11082"
        },
        {
            "city": "W\u0119gr\u00f3w",
            "region": "78",
            "country": "PL",
            "latitude": "52.39954",
            "longitude": "22.01634"
        },
        {
            "city": "W\u0119gorzewo",
            "region": "85",
            "country": "PL",
            "latitude": "54.21567",
            "longitude": "21.7372"
        },
        {
            "city": "W\u0119gl\u00f3wka",
            "region": "77",
            "country": "PL",
            "latitude": "49.73424",
            "longitude": "20.08575"
        },
        {
            "city": "Wawrze\u0144czyce",
            "region": "77",
            "country": "PL",
            "latitude": "50.11012",
            "longitude": "20.31612"
        },
        {
            "city": "W\u0105wolnica",
            "region": "75",
            "country": "PL",
            "latitude": "51.29467",
            "longitude": "22.14681"
        },
        {
            "city": "W\u0105sosz",
            "region": "81",
            "country": "PL",
            "latitude": "53.52209",
            "longitude": "22.31915"
        },
        {
            "city": "Wa\u015bni\u00f3w",
            "region": "84",
            "country": "PL",
            "latitude": "50.89914",
            "longitude": "21.22301"
        },
        {
            "city": "Wasilk\u00f3w",
            "region": "81",
            "country": "PL",
            "latitude": "53.19909",
            "longitude": "23.20776"
        },
        {
            "city": "Warsaw",
            "region": "78",
            "country": "PL",
            "latitude": "52.22977",
            "longitude": "21.01178"
        },
        {
            "city": "Warka",
            "region": "78",
            "country": "PL",
            "latitude": "51.7843",
            "longitude": "21.19091"
        },
        {
            "city": "Jod\u0142\u00f3wka-Wa\u0142ki",
            "region": "77",
            "country": "PL",
            "latitude": "50.04992",
            "longitude": "21.13332"
        },
        {
            "city": "Waksmund",
            "region": "77",
            "country": "PL",
            "latitude": "49.48207",
            "longitude": "20.07563"
        },
        {
            "city": "Wadowice G\u00f3rne",
            "region": "80",
            "country": "PL",
            "latitude": "50.26312",
            "longitude": "21.30215"
        },
        {
            "city": "W\u0105chock",
            "region": "84",
            "country": "PL",
            "latitude": "51.07391",
            "longitude": "21.01243"
        },
        {
            "city": "Ustrzyki Dolne",
            "region": "80",
            "country": "PL",
            "latitude": "49.4304",
            "longitude": "22.59381"
        },
        {
            "city": "U\u015bcim\u00f3w Stary",
            "region": "75",
            "country": "PL",
            "latitude": "51.46962",
            "longitude": "22.95516"
        },
        {
            "city": "U\u015bcie Gorlickie",
            "region": "77",
            "country": "PL",
            "latitude": "49.52192",
            "longitude": "21.13821"
        },
        {
            "city": "Urzejowice",
            "region": "80",
            "country": "PL",
            "latitude": "50.01182",
            "longitude": "22.46189"
        },
        {
            "city": "Urz\u0119d\u00f3w",
            "region": "75",
            "country": "PL",
            "latitude": "50.99323",
            "longitude": "22.1426"
        },
        {
            "city": "Urszulin",
            "region": "75",
            "country": "PL",
            "latitude": "51.3939",
            "longitude": "23.1948"
        },
        {
            "city": "Ulh\u00f3wek",
            "region": "75",
            "country": "PL",
            "latitude": "50.44969",
            "longitude": "23.79956"
        },
        {
            "city": "U\u0142\u0119\u017c",
            "region": "75",
            "country": "PL",
            "latitude": "51.59195",
            "longitude": "22.10741"
        },
        {
            "city": "Ulan\u00f3w",
            "region": "80",
            "country": "PL",
            "latitude": "50.49031",
            "longitude": "22.26362"
        },
        {
            "city": "Uherce Mineralne",
            "region": "80",
            "country": "PL",
            "latitude": "49.46455",
            "longitude": "22.39829"
        },
        {
            "city": "Tyszowce",
            "region": "75",
            "country": "PL",
            "latitude": "50.61699",
            "longitude": "23.69927"
        },
        {
            "city": "Tyrawa Wo\u0142oska",
            "region": "80",
            "country": "PL",
            "latitude": "49.57744",
            "longitude": "22.36988"
        },
        {
            "city": "Tymbark",
            "region": "77",
            "country": "PL",
            "latitude": "49.72859",
            "longitude": "20.32539"
        },
        {
            "city": "Tykocin",
            "region": "81",
            "country": "PL",
            "latitude": "53.20567",
            "longitude": "22.77457"
        },
        {
            "city": "Tyczyn",
            "region": "80",
            "country": "PL",
            "latitude": "49.96384",
            "longitude": "22.03398"
        },
        {
            "city": "Turze Pole",
            "region": "80",
            "country": "PL",
            "latitude": "49.66329",
            "longitude": "22.00476"
        },
        {
            "city": "Turo\u015b\u0144 Ko\u015bcielna",
            "region": "81",
            "country": "PL",
            "latitude": "53.01463",
            "longitude": "23.05532"
        },
        {
            "city": "Turobin",
            "region": "75",
            "country": "PL",
            "latitude": "50.82367",
            "longitude": "22.74273"
        },
        {
            "city": "Tuczna",
            "region": "75",
            "country": "PL",
            "latitude": "51.88028",
            "longitude": "23.4252"
        },
        {
            "city": "Tucz\u0119py",
            "region": "84",
            "country": "PL",
            "latitude": "50.51676",
            "longitude": "20.99187"
        },
        {
            "city": "Tuch\u00f3w",
            "region": "77",
            "country": "PL",
            "latitude": "49.89485",
            "longitude": "21.05407"
        },
        {
            "city": "Trzydnik Du\u017cy",
            "region": "75",
            "country": "PL",
            "latitude": "50.84887",
            "longitude": "22.13359"
        },
        {
            "city": "Trzeme\u015bnia",
            "region": "77",
            "country": "PL",
            "latitude": "49.82752",
            "longitude": "20.02207"
        },
        {
            "city": "Trzebownisko",
            "region": "80",
            "country": "PL",
            "latitude": "50.07829",
            "longitude": "22.03712"
        },
        {
            "city": "Trzebiesz\u00f3w",
            "region": "75",
            "country": "PL",
            "latitude": "51.99006",
            "longitude": "22.55502"
        },
        {
            "city": "Trzcinica",
            "region": "80",
            "country": "PL",
            "latitude": "49.74301",
            "longitude": "21.4175"
        },
        {
            "city": "Trzciana",
            "region": "80",
            "country": "PL",
            "latitude": "50.30771",
            "longitude": "21.33725"
        },
        {
            "city": "Trzciana",
            "region": "80",
            "country": "PL",
            "latitude": "50.0719",
            "longitude": "21.8385"
        },
        {
            "city": "Trzciana",
            "region": "77",
            "country": "PL",
            "latitude": "49.84485",
            "longitude": "20.37415"
        },
        {
            "city": "Try\u0144cza",
            "region": "80",
            "country": "PL",
            "latitude": "50.16087",
            "longitude": "22.55008"
        },
        {
            "city": "Truskaw",
            "region": "78",
            "country": "PL",
            "latitude": "52.30124",
            "longitude": "20.78244"
        },
        {
            "city": "Troszyn",
            "region": "78",
            "country": "PL",
            "latitude": "53.03115",
            "longitude": "21.73083"
        },
        {
            "city": "Trojan\u00f3w",
            "region": "78",
            "country": "PL",
            "latitude": "51.69225",
            "longitude": "21.81112"
        },
        {
            "city": "Trawniki",
            "region": "75",
            "country": "PL",
            "latitude": "51.13633",
            "longitude": "22.99816"
        },
        {
            "city": "Trablice",
            "region": "78",
            "country": "PL",
            "latitude": "51.35249",
            "longitude": "21.12877"
        },
        {
            "city": "Tr\u0105bki",
            "region": "78",
            "country": "PL",
            "latitude": "51.94792",
            "longitude": "21.59929"
        },
        {
            "city": "Tr\u0105bki",
            "region": "77",
            "country": "PL",
            "latitude": "49.96226",
            "longitude": "20.1424"
        },
        {
            "city": "Tomasz\u00f3w Mazowiecki",
            "region": "74",
            "country": "PL",
            "latitude": "51.53131",
            "longitude": "20.00855"
        },
        {
            "city": "Tomasz\u00f3w Lubelski",
            "region": "75",
            "country": "PL",
            "latitude": "50.44767",
            "longitude": "23.41616"
        },
        {
            "city": "T\u0142uszcz",
            "region": "78",
            "country": "PL",
            "latitude": "52.43058",
            "longitude": "21.43561"
        },
        {
            "city": "Tereszpol",
            "region": "75",
            "country": "PL",
            "latitude": "50.58373",
            "longitude": "22.8798"
        },
        {
            "city": "Tereszpol",
            "region": "75",
            "country": "PL",
            "latitude": "50.56667",
            "longitude": "22.93333"
        },
        {
            "city": "Terespol",
            "region": "75",
            "country": "PL",
            "latitude": "52.0755",
            "longitude": "23.61614"
        },
        {
            "city": "Teresin",
            "region": "78",
            "country": "PL",
            "latitude": "52.19887",
            "longitude": "20.41672"
        },
        {
            "city": "Telatyn",
            "region": "75",
            "country": "PL",
            "latitude": "50.52712",
            "longitude": "23.83956"
        },
        {
            "city": "Tcz\u00f3w",
            "region": "78",
            "country": "PL",
            "latitude": "51.326",
            "longitude": "21.44677"
        },
        {
            "city": "Tarnowiec",
            "region": "77",
            "country": "PL",
            "latitude": "49.98164",
            "longitude": "20.98655"
        },
        {
            "city": "Tarnowiec",
            "region": "80",
            "country": "PL",
            "latitude": "49.73108",
            "longitude": "21.57663"
        },
        {
            "city": "Tarn\u00f3w",
            "region": "77",
            "country": "PL",
            "latitude": "50.01381",
            "longitude": "20.98698"
        },
        {
            "city": "Tarnogr\u00f3d",
            "region": "75",
            "country": "PL",
            "latitude": "50.3609",
            "longitude": "22.74174"
        },
        {
            "city": "Tarnobrzeg",
            "region": "80",
            "country": "PL",
            "latitude": "50.57304",
            "longitude": "21.67937"
        },
        {
            "city": "Tarnawatka",
            "region": "75",
            "country": "PL",
            "latitude": "50.53154",
            "longitude": "23.3959"
        },
        {
            "city": "Tar\u0142\u00f3w",
            "region": "84",
            "country": "PL",
            "latitude": "51.0016",
            "longitude": "21.71474"
        },
        {
            "city": "Targowisko",
            "region": "77",
            "country": "PL",
            "latitude": "49.98473",
            "longitude": "20.29346"
        },
        {
            "city": "Tarczyn",
            "region": "78",
            "country": "PL",
            "latitude": "51.98197",
            "longitude": "20.83394"
        },
        {
            "city": "Szynwa\u0142d",
            "region": "77",
            "country": "PL",
            "latitude": "49.96767",
            "longitude": "21.12293"
        },
        {
            "city": "Szyd\u0142owo",
            "region": "78",
            "country": "PL",
            "latitude": "53.08062",
            "longitude": "20.45071"
        },
        {
            "city": "Szyd\u0142owiec",
            "region": "78",
            "country": "PL",
            "latitude": "51.22823",
            "longitude": "20.86106"
        },
        {
            "city": "Szyd\u0142\u00f3w",
            "region": "84",
            "country": "PL",
            "latitude": "50.59114",
            "longitude": "21.0068"
        },
        {
            "city": "Szumowo",
            "region": "81",
            "country": "PL",
            "latitude": "52.91884",
            "longitude": "22.08449"
        },
        {
            "city": "Szre\u0144sk",
            "region": "78",
            "country": "PL",
            "latitude": "53.01277",
            "longitude": "20.12009"
        },
        {
            "city": "Szerzyny",
            "region": "77",
            "country": "PL",
            "latitude": "49.80919",
            "longitude": "21.2467"
        },
        {
            "city": "Szepietowo",
            "region": "81",
            "country": "PL",
            "latitude": "52.87032",
            "longitude": "22.54392"
        },
        {
            "city": "Szelk\u00f3w",
            "region": "78",
            "country": "PL",
            "latitude": "52.83487",
            "longitude": "21.21769"
        },
        {
            "city": "Szczytno",
            "region": "85",
            "country": "PL",
            "latitude": "53.56259",
            "longitude": "20.98747"
        },
        {
            "city": "Szczurowa",
            "region": "77",
            "country": "PL",
            "latitude": "50.11915",
            "longitude": "20.6361"
        },
        {
            "city": "Szczuczyn",
            "region": "81",
            "country": "PL",
            "latitude": "53.5633",
            "longitude": "22.28534"
        },
        {
            "city": "Szczucin",
            "region": "77",
            "country": "PL",
            "latitude": "50.30957",
            "longitude": "21.07444"
        },
        {
            "city": "Szczebrzeszyn",
            "region": "75",
            "country": "PL",
            "latitude": "50.69499",
            "longitude": "22.97954"
        },
        {
            "city": "Szczawnica",
            "region": "77",
            "country": "PL",
            "latitude": "49.42437",
            "longitude": "20.48487"
        },
        {
            "city": "Szastarka",
            "region": "75",
            "country": "PL",
            "latitude": "50.85494",
            "longitude": "22.3346"
        },
        {
            "city": "Szar\u00f3w",
            "region": "77",
            "country": "PL",
            "latitude": "49.99505",
            "longitude": "20.2696"
        },
        {
            "city": "Szaflary",
            "region": "77",
            "country": "PL",
            "latitude": "49.42655",
            "longitude": "20.02713"
        },
        {
            "city": "Sypniewo",
            "region": "78",
            "country": "PL",
            "latitude": "53.0058",
            "longitude": "21.3073"
        },
        {
            "city": "\u015awilcza",
            "region": "80",
            "country": "PL",
            "latitude": "50.07179",
            "longitude": "21.89798"
        },
        {
            "city": "Swi\u0119tajno",
            "region": "85",
            "country": "PL",
            "latitude": "54.00151",
            "longitude": "22.3183"
        },
        {
            "city": "\u015awi\u0119tajno",
            "region": "85",
            "country": "PL",
            "latitude": "54.03892",
            "longitude": "22.33297"
        },
        {
            "city": "\u015awi\u0119tajno",
            "region": "85",
            "country": "PL",
            "latitude": "53.56692",
            "longitude": "21.21546"
        },
        {
            "city": "\u015awidnik",
            "region": "75",
            "country": "PL",
            "latitude": "51.21898",
            "longitude": "22.69621"
        },
        {
            "city": "Suwa\u0142ki",
            "region": "81",
            "country": "PL",
            "latitude": "54.11175",
            "longitude": "22.93087"
        },
        {
            "city": "Susiec",
            "region": "75",
            "country": "PL",
            "latitude": "50.41973",
            "longitude": "23.19626"
        },
        {
            "city": "Sura\u017c",
            "region": "81",
            "country": "PL",
            "latitude": "52.94908",
            "longitude": "22.95653"
        },
        {
            "city": "Supra\u015bl",
            "region": "81",
            "country": "PL",
            "latitude": "53.20526",
            "longitude": "23.33934"
        },
        {
            "city": "Su\u0142\u00f3w",
            "region": "75",
            "country": "PL",
            "latitude": "50.90661",
            "longitude": "22.36061"
        },
        {
            "city": "Su\u0142\u00f3w",
            "region": "75",
            "country": "PL",
            "latitude": "50.77099",
            "longitude": "22.95593"
        },
        {
            "city": "Su\u0142kowice",
            "region": "78",
            "country": "PL",
            "latitude": "51.9231",
            "longitude": "21.08929"
        },
        {
            "city": "Sulej\u00f3wek",
            "region": "78",
            "country": "PL",
            "latitude": "52.25221",
            "longitude": "21.26902"
        },
        {
            "city": "Sucho\u017cebry",
            "region": "78",
            "country": "PL",
            "latitude": "52.25948",
            "longitude": "22.25289"
        },
        {
            "city": "Suchowola",
            "region": "81",
            "country": "PL",
            "latitude": "53.57753",
            "longitude": "23.10596"
        },
        {
            "city": "Suchedni\u00f3w",
            "region": "84",
            "country": "PL",
            "latitude": "51.04776",
            "longitude": "20.82922"
        },
        {
            "city": "Sucha",
            "region": "78",
            "country": "PL",
            "latitude": "51.61999",
            "longitude": "20.94887"
        },
        {
            "city": "Stupsk",
            "region": "78",
            "country": "PL",
            "latitude": "53.02258",
            "longitude": "20.4368"
        },
        {
            "city": "Stubno",
            "region": "80",
            "country": "PL",
            "latitude": "49.89806",
            "longitude": "22.95602"
        },
        {
            "city": "Strzy\u017cowice",
            "region": "75",
            "country": "PL",
            "latitude": "51.0483",
            "longitude": "22.44018"
        },
        {
            "city": "Strzy\u017c\u00f3w",
            "region": "80",
            "country": "PL",
            "latitude": "49.87074",
            "longitude": "21.79413"
        },
        {
            "city": "Strzegowo",
            "region": "78",
            "country": "PL",
            "latitude": "52.89394",
            "longitude": "20.28548"
        },
        {
            "city": "Stromiec",
            "region": "78",
            "country": "PL",
            "latitude": "51.647",
            "longitude": "21.09229"
        },
        {
            "city": "Strawczyn",
            "region": "84",
            "country": "PL",
            "latitude": "50.94177",
            "longitude": "20.42135"
        },
        {
            "city": "Straszydle",
            "region": "80",
            "country": "PL",
            "latitude": "49.90038",
            "longitude": "21.98124"
        },
        {
            "city": "Strach\u00f3wka",
            "region": "78",
            "country": "PL",
            "latitude": "52.42692",
            "longitude": "21.635"
        },
        {
            "city": "Strachocina",
            "region": "80",
            "country": "PL",
            "latitude": "49.60815",
            "longitude": "22.08836"
        },
        {
            "city": "Stopnica",
            "region": "84",
            "country": "PL",
            "latitude": "50.44018",
            "longitude": "20.9378"
        },
        {
            "city": "Stoczek \u0141ukowski",
            "region": "75",
            "country": "PL",
            "latitude": "51.96135",
            "longitude": "21.97137"
        },
        {
            "city": "Stoczek",
            "region": "78",
            "country": "PL",
            "latitude": "52.54332",
            "longitude": "21.90013"
        },
        {
            "city": "St\u0119\u017cyca",
            "region": "75",
            "country": "PL",
            "latitude": "51.58187",
            "longitude": "21.77087"
        },
        {
            "city": "Sterdy\u0144",
            "region": "78",
            "country": "PL",
            "latitude": "52.58026",
            "longitude": "22.29358"
        },
        {
            "city": "Stawiski",
            "region": "81",
            "country": "PL",
            "latitude": "53.37987",
            "longitude": "22.15462"
        },
        {
            "city": "Stawiguda",
            "region": "85",
            "country": "PL",
            "latitude": "53.6572",
            "longitude": "20.40041"
        },
        {
            "city": "Stasz\u00f3w",
            "region": "84",
            "country": "PL",
            "latitude": "50.56307",
            "longitude": "21.16593"
        },
        {
            "city": "Stary Zamo\u015b\u0107",
            "region": "75",
            "country": "PL",
            "latitude": "50.82004",
            "longitude": "23.17154"
        },
        {
            "city": "Stary Wi\u015bnicz",
            "region": "77",
            "country": "PL",
            "latitude": "49.92548",
            "longitude": "20.48641"
        },
        {
            "city": "Stary S\u0105cz",
            "region": "77",
            "country": "PL",
            "latitude": "49.56364",
            "longitude": "20.63496"
        },
        {
            "city": "Stare Miasto",
            "region": "80",
            "country": "PL",
            "latitude": "50.28879",
            "longitude": "22.42928"
        },
        {
            "city": "Stare Juchy",
            "region": "85",
            "country": "PL",
            "latitude": "53.92198",
            "longitude": "22.17367"
        },
        {
            "city": "Stare Babice",
            "region": "78",
            "country": "PL",
            "latitude": "52.26028",
            "longitude": "20.83403"
        },
        {
            "city": "Stara Wie\u015b",
            "region": "80",
            "country": "PL",
            "latitude": "49.71505",
            "longitude": "22.00441"
        },
        {
            "city": "Starachowice",
            "region": "84",
            "country": "PL",
            "latitude": "51.0374",
            "longitude": "21.07126"
        },
        {
            "city": "St\u0105pork\u00f3w",
            "region": "84",
            "country": "PL",
            "latitude": "51.13762",
            "longitude": "20.57173"
        },
        {
            "city": "Stanis\u0142aw\u00f3w Pierwszy",
            "region": "78",
            "country": "PL",
            "latitude": "52.37485",
            "longitude": "21.05184"
        },
        {
            "city": "Stanis\u0142aw\u00f3w",
            "region": "78",
            "country": "PL",
            "latitude": "52.28937",
            "longitude": "21.54848"
        },
        {
            "city": "Stanis\u0142awice",
            "region": "77",
            "country": "PL",
            "latitude": "49.9855",
            "longitude": "20.35123"
        },
        {
            "city": "Stalowa Wola",
            "region": "80",
            "country": "PL",
            "latitude": "50.58286",
            "longitude": "22.05334"
        },
        {
            "city": "Srokowo",
            "region": "85",
            "country": "PL",
            "latitude": "54.21416",
            "longitude": "21.52282"
        },
        {
            "city": "Spiczyn",
            "region": "75",
            "country": "PL",
            "latitude": "51.34128",
            "longitude": "22.75354"
        },
        {
            "city": "Sosn\u00f3wka",
            "region": "75",
            "country": "PL",
            "latitude": "51.75084",
            "longitude": "23.33814"
        },
        {
            "city": "Sosnowica",
            "region": "75",
            "country": "PL",
            "latitude": "51.52065",
            "longitude": "23.09215"
        },
        {
            "city": "So\u015bnica",
            "region": "80",
            "country": "PL",
            "latitude": "49.90083",
            "longitude": "22.87469"
        },
        {
            "city": "So\u0144sk",
            "region": "78",
            "country": "PL",
            "latitude": "52.78164",
            "longitude": "20.69901"
        },
        {
            "city": "Sonina",
            "region": "80",
            "country": "PL",
            "latitude": "50.06089",
            "longitude": "22.26551"
        },
        {
            "city": "Solec-Zdr\u00f3j",
            "region": "84",
            "country": "PL",
            "latitude": "50.36594",
            "longitude": "20.88956"
        },
        {
            "city": "Solec Nad Wis\u0142\u0105",
            "region": "78",
            "country": "PL",
            "latitude": "51.13633",
            "longitude": "21.76563"
        },
        {
            "city": "Soko\u0142y",
            "region": "81",
            "country": "PL",
            "latitude": "52.99314",
            "longitude": "22.7005"
        },
        {
            "city": "Soko\u0142\u00f3w Podlaski",
            "region": "78",
            "country": "PL",
            "latitude": "52.40677",
            "longitude": "22.25307"
        },
        {
            "city": "Soko\u0142\u00f3w Ma\u0142opolski",
            "region": "80",
            "country": "PL",
            "latitude": "50.22909",
            "longitude": "22.11968"
        },
        {
            "city": "Sokolniki",
            "region": "80",
            "country": "PL",
            "latitude": "50.63803",
            "longitude": "21.80649"
        },
        {
            "city": "Sok\u00f3\u0142ka",
            "region": "81",
            "country": "PL",
            "latitude": "53.40715",
            "longitude": "23.50228"
        },
        {
            "city": "Sochocin",
            "region": "78",
            "country": "PL",
            "latitude": "52.68715",
            "longitude": "20.47259"
        },
        {
            "city": "Sochaczew",
            "region": "78",
            "country": "PL",
            "latitude": "52.22944",
            "longitude": "20.23838"
        },
        {
            "city": "Sobolew",
            "region": "78",
            "country": "PL",
            "latitude": "51.7366",
            "longitude": "21.66349"
        },
        {
            "city": "Sobk\u00f3w",
            "region": "84",
            "country": "PL",
            "latitude": "50.69999",
            "longitude": "20.45062"
        },
        {
            "city": "Sobienie Jeziory",
            "region": "78",
            "country": "PL",
            "latitude": "51.93273",
            "longitude": "21.30335"
        },
        {
            "city": "\u015aniadowo",
            "region": "81",
            "country": "PL",
            "latitude": "53.03874",
            "longitude": "21.99077"
        },
        {
            "city": "Smyk\u00f3w",
            "region": "84",
            "country": "PL",
            "latitude": "51.04442",
            "longitude": "20.40032"
        },
        {
            "city": "Sm\u0119gorz\u00f3w",
            "region": "77",
            "country": "PL",
            "latitude": "50.22843",
            "longitude": "21.00414"
        },
        {
            "city": "S\u0142upno",
            "region": "78",
            "country": "PL",
            "latitude": "52.38409",
            "longitude": "21.15572"
        },
        {
            "city": "S\u0142upiec",
            "region": "77",
            "country": "PL",
            "latitude": "50.32787",
            "longitude": "21.19374"
        },
        {
            "city": "S\u0142upia",
            "region": "84",
            "country": "PL",
            "latitude": "51.0137",
            "longitude": "20.1406"
        },
        {
            "city": "S\u0142otowa",
            "region": "80",
            "country": "PL",
            "latitude": "49.94603",
            "longitude": "21.29425"
        },
        {
            "city": "S\u0142opnice",
            "region": "77",
            "country": "PL",
            "latitude": "49.68496",
            "longitude": "20.34325"
        },
        {
            "city": "S\u0142omniki",
            "region": "77",
            "country": "PL",
            "latitude": "50.24012",
            "longitude": "20.08224"
        },
        {
            "city": "S\u0142awno",
            "region": "74",
            "country": "PL",
            "latitude": "51.39273",
            "longitude": "20.14043"
        },
        {
            "city": "S\u0142awatycze",
            "region": "75",
            "country": "PL",
            "latitude": "51.76338",
            "longitude": "23.5546"
        },
        {
            "city": "Skrzysz\u00f3w",
            "region": "77",
            "country": "PL",
            "latitude": "49.99373",
            "longitude": "21.06139"
        },
        {
            "city": "Skrzydlna",
            "region": "77",
            "country": "PL",
            "latitude": "49.75343",
            "longitude": "20.18618"
        },
        {
            "city": "Sk\u00f3rzec",
            "region": "78",
            "country": "PL",
            "latitude": "52.10727",
            "longitude": "22.13052"
        },
        {
            "city": "Sko\u0142yszyn",
            "region": "80",
            "country": "PL",
            "latitude": "49.74955",
            "longitude": "21.33665"
        },
        {
            "city": "Skierniewice",
            "region": "74",
            "country": "PL",
            "latitude": "51.95485",
            "longitude": "20.15837"
        },
        {
            "city": "Skierbiesz\u00f3w",
            "region": "75",
            "country": "PL",
            "latitude": "50.85158",
            "longitude": "23.35917"
        },
        {
            "city": "Skar\u017cysko Ko\u015bcielne",
            "region": "84",
            "country": "PL",
            "latitude": "51.13822",
            "longitude": "20.91196"
        },
        {
            "city": "Skar\u017cysko-Kamienna",
            "region": "84",
            "country": "PL",
            "latitude": "51.11311",
            "longitude": "20.87162"
        },
        {
            "city": "Skaryszew",
            "region": "78",
            "country": "PL",
            "latitude": "51.31075",
            "longitude": "21.25233"
        },
        {
            "city": "Skalbmierz",
            "region": "84",
            "country": "PL",
            "latitude": "50.31993",
            "longitude": "20.39929"
        },
        {
            "city": "Sitno",
            "region": "75",
            "country": "PL",
            "latitude": "50.74944",
            "longitude": "23.3626"
        },
        {
            "city": "Osiedle-Nowiny",
            "region": "84",
            "country": "PL",
            "latitude": "50.8177",
            "longitude": "20.54117"
        },
        {
            "city": "Sietesz",
            "region": "80",
            "country": "PL",
            "latitude": "49.98622",
            "longitude": "22.34671"
        },
        {
            "city": "Sieradza",
            "region": "77",
            "country": "PL",
            "latitude": "50.13499",
            "longitude": "20.92947"
        },
        {
            "city": "Sienno",
            "region": "78",
            "country": "PL",
            "latitude": "51.08773",
            "longitude": "21.48325"
        },
        {
            "city": "Siennica",
            "region": "78",
            "country": "PL",
            "latitude": "52.09164",
            "longitude": "21.61921"
        },
        {
            "city": "Sieniawa",
            "region": "80",
            "country": "PL",
            "latitude": "50.1779",
            "longitude": "22.60954"
        },
        {
            "city": "Sieniawa",
            "region": "80",
            "country": "PL",
            "latitude": "49.56508",
            "longitude": "21.92785"
        },
        {
            "city": "Siemie\u0144",
            "region": "75",
            "country": "PL",
            "latitude": "51.62883",
            "longitude": "22.77243"
        },
        {
            "city": "Siemiech\u00f3w",
            "region": "77",
            "country": "PL",
            "latitude": "49.85359",
            "longitude": "20.90595"
        },
        {
            "city": "Siemiatycze",
            "region": "81",
            "country": "PL",
            "latitude": "52.42719",
            "longitude": "22.86231"
        },
        {
            "city": "Siemi\u0105tkowo",
            "region": "78",
            "country": "PL",
            "latitude": "52.8811",
            "longitude": "20.02893"
        },
        {
            "city": "Siedliska",
            "region": "80",
            "country": "PL",
            "latitude": "49.95409",
            "longitude": "21.94742"
        },
        {
            "city": "Siedliska",
            "region": "77",
            "country": "PL",
            "latitude": "49.87163",
            "longitude": "20.99625"
        },
        {
            "city": "Siedleczka",
            "region": "80",
            "country": "PL",
            "latitude": "49.96061",
            "longitude": "22.37949"
        },
        {
            "city": "Siedlce",
            "region": "78",
            "country": "PL",
            "latitude": "52.16772",
            "longitude": "22.29006"
        },
        {
            "city": "Serokomla",
            "region": "75",
            "country": "PL",
            "latitude": "51.7007",
            "longitude": "22.33237"
        },
        {
            "city": "Serock",
            "region": "78",
            "country": "PL",
            "latitude": "52.51036",
            "longitude": "21.0691"
        },
        {
            "city": "Serniki",
            "region": "75",
            "country": "PL",
            "latitude": "51.43716",
            "longitude": "22.65853"
        },
        {
            "city": "S\u0119popol",
            "region": "85",
            "country": "PL",
            "latitude": "54.26903",
            "longitude": "21.01453"
        },
        {
            "city": "S\u0119kowa",
            "region": "77",
            "country": "PL",
            "latitude": "49.62217",
            "longitude": "21.19769"
        },
        {
            "city": "Sejny",
            "region": "81",
            "country": "PL",
            "latitude": "54.10802",
            "longitude": "23.34698"
        },
        {
            "city": "S\u0119dzisz\u00f3w Ma\u0142opolski",
            "region": "80",
            "country": "PL",
            "latitude": "50.07069",
            "longitude": "21.70062"
        },
        {
            "city": "S\u0119dzisz\u00f3w",
            "region": "84",
            "country": "PL",
            "latitude": "50.5659",
            "longitude": "20.05563"
        },
        {
            "city": "Sawin",
            "region": "75",
            "country": "PL",
            "latitude": "51.27443",
            "longitude": "23.43375"
        },
        {
            "city": "Sarnaki",
            "region": "78",
            "country": "PL",
            "latitude": "52.31504",
            "longitude": "22.89044"
        },
        {
            "city": "Sanok",
            "region": "80",
            "country": "PL",
            "latitude": "49.55573",
            "longitude": "22.2056"
        },
        {
            "city": "Sandomierz",
            "region": "84",
            "country": "PL",
            "latitude": "50.68265",
            "longitude": "21.74898"
        },
        {
            "city": "Samborzec",
            "region": "84",
            "country": "PL",
            "latitude": "50.64663",
            "longitude": "21.64822"
        },
        {
            "city": "Sadowne",
            "region": "78",
            "country": "PL",
            "latitude": "52.64124",
            "longitude": "21.84563"
        },
        {
            "city": "Sadowie",
            "region": "84",
            "country": "PL",
            "latitude": "50.85261",
            "longitude": "21.36884"
        },
        {
            "city": "Sadkowice",
            "region": "74",
            "country": "PL",
            "latitude": "51.72517",
            "longitude": "20.51465"
        },
        {
            "city": "Sabnie",
            "region": "78",
            "country": "PL",
            "latitude": "52.50097",
            "longitude": "22.30697"
        },
        {
            "city": "Rzezawa",
            "region": "77",
            "country": "PL",
            "latitude": "49.98997",
            "longitude": "20.51508"
        },
        {
            "city": "Rzewnie",
            "region": "78",
            "country": "PL",
            "latitude": "52.83508",
            "longitude": "21.33682"
        },
        {
            "city": "Rzesz\u00f3w",
            "region": "80",
            "country": "PL",
            "latitude": "50.04132",
            "longitude": "21.99901"
        },
        {
            "city": "Rzepiennik Strzy\u017cewski",
            "region": "77",
            "country": "PL",
            "latitude": "49.80542",
            "longitude": "21.03599"
        },
        {
            "city": "Rzeped\u017a",
            "region": "80",
            "country": "PL",
            "latitude": "49.36997",
            "longitude": "22.11174"
        },
        {
            "city": "Rzeku\u0144",
            "region": "78",
            "country": "PL",
            "latitude": "53.04756",
            "longitude": "21.62069"
        },
        {
            "city": "Rzeczyca",
            "region": "75",
            "country": "PL",
            "latitude": "51.96225",
            "longitude": "22.74942"
        },
        {
            "city": "Rzeczyca",
            "region": "74",
            "country": "PL",
            "latitude": "51.59824",
            "longitude": "20.29484"
        },
        {
            "city": "Rzeczni\u00f3w",
            "region": "78",
            "country": "PL",
            "latitude": "51.12804",
            "longitude": "21.44008"
        },
        {
            "city": "Rz\u0105\u015bnik",
            "region": "78",
            "country": "PL",
            "latitude": "52.71332",
            "longitude": "21.36772"
        },
        {
            "city": "Rytwiany",
            "region": "84",
            "country": "PL",
            "latitude": "50.5292",
            "longitude": "21.20636"
        },
        {
            "city": "Rytro",
            "region": "77",
            "country": "PL",
            "latitude": "49.48904",
            "longitude": "20.66631"
        },
        {
            "city": "Ryn",
            "region": "85",
            "country": "PL",
            "latitude": "53.9377",
            "longitude": "21.54642"
        },
        {
            "city": "Ryman\u00f3w",
            "region": "80",
            "country": "PL",
            "latitude": "49.57649",
            "longitude": "21.86811"
        },
        {
            "city": "Ryki",
            "region": "75",
            "country": "PL",
            "latitude": "51.62574",
            "longitude": "21.93274"
        },
        {
            "city": "Ryglice",
            "region": "77",
            "country": "PL",
            "latitude": "49.87887",
            "longitude": "21.13748"
        },
        {
            "city": "Ryczyw\u00f3\u0142",
            "region": "78",
            "country": "PL",
            "latitude": "51.69118",
            "longitude": "21.42197"
        },
        {
            "city": "Rybno",
            "region": "78",
            "country": "PL",
            "latitude": "52.24278",
            "longitude": "20.10301"
        },
        {
            "city": "Rybie",
            "region": "78",
            "country": "PL",
            "latitude": "52.15229",
            "longitude": "20.93655"
        },
        {
            "city": "Rybczewice",
            "region": "75",
            "country": "PL",
            "latitude": "51.02876",
            "longitude": "22.85053"
        },
        {
            "city": "Rutki",
            "region": "81",
            "country": "PL",
            "latitude": "53.1",
            "longitude": "22.43333"
        },
        {
            "city": "Rusin\u00f3w",
            "region": "78",
            "country": "PL",
            "latitude": "51.43678",
            "longitude": "20.58701"
        },
        {
            "city": "Rudnik",
            "region": "75",
            "country": "PL",
            "latitude": "50.88035",
            "longitude": "22.97293"
        },
        {
            "city": "Rudnik nad Sanem",
            "region": "80",
            "country": "PL",
            "latitude": "50.44152",
            "longitude": "22.24856"
        },
        {
            "city": "Rudna Wielka",
            "region": "80",
            "country": "PL",
            "latitude": "50.08799",
            "longitude": "21.94759"
        },
        {
            "city": "Rudna Ma\u0142a",
            "region": "80",
            "country": "PL",
            "latitude": "50.09889",
            "longitude": "21.96021"
        },
        {
            "city": "Rudka",
            "region": "81",
            "country": "PL",
            "latitude": "52.72439",
            "longitude": "22.72676"
        },
        {
            "city": "Ruda Maleniecka",
            "region": "84",
            "country": "PL",
            "latitude": "51.14592",
            "longitude": "20.22377"
        },
        {
            "city": "Ruciane-Nida",
            "region": "85",
            "country": "PL",
            "latitude": "53.64161",
            "longitude": "21.53964"
        },
        {
            "city": "Rozogi",
            "region": "85",
            "country": "PL",
            "latitude": "53.48549",
            "longitude": "21.36223"
        },
        {
            "city": "Rozb\u00f3rz",
            "region": "80",
            "country": "PL",
            "latitude": "50.05615",
            "longitude": "22.54686"
        },
        {
            "city": "Siennica R\u00f3\u017cana",
            "region": "75",
            "country": "PL",
            "latitude": "51.00123",
            "longitude": "23.3226"
        },
        {
            "city": "R\u00f3\u017can",
            "region": "78",
            "country": "PL",
            "latitude": "52.88757",
            "longitude": "21.39105"
        },
        {
            "city": "Rossosz",
            "region": "75",
            "country": "PL",
            "latitude": "51.85836",
            "longitude": "23.1374"
        },
        {
            "city": "Ropczyce",
            "region": "80",
            "country": "PL",
            "latitude": "50.05229",
            "longitude": "21.60891"
        },
        {
            "city": "Ropa",
            "region": "77",
            "country": "PL",
            "latitude": "49.59146",
            "longitude": "21.04431"
        },
        {
            "city": "Rokitno",
            "region": "75",
            "country": "PL",
            "latitude": "52.12142",
            "longitude": "23.29514"
        },
        {
            "city": "Rokietnica",
            "region": "80",
            "country": "PL",
            "latitude": "49.89983",
            "longitude": "22.64171"
        },
        {
            "city": "Rog\u00f3\u017ano",
            "region": "75",
            "country": "PL",
            "latitude": "50.46417",
            "longitude": "23.39041"
        },
        {
            "city": "Rog\u00f3\u017ano",
            "region": "80",
            "country": "PL",
            "latitude": "50.07367",
            "longitude": "22.37486"
        },
        {
            "city": "Rog\u00f3w",
            "region": "84",
            "country": "PL",
            "latitude": "51.20414",
            "longitude": "20.43483"
        },
        {
            "city": "Reszel",
            "region": "85",
            "country": "PL",
            "latitude": "54.05042",
            "longitude": "21.14585"
        },
        {
            "city": "Repki",
            "region": "78",
            "country": "PL",
            "latitude": "52.38555",
            "longitude": "22.39117"
        },
        {
            "city": "Rejowiec Fabryczny",
            "region": "75",
            "country": "PL",
            "latitude": "51.11414",
            "longitude": "23.24724"
        },
        {
            "city": "Rejowiec",
            "region": "75",
            "country": "PL",
            "latitude": "51.09134",
            "longitude": "23.28192"
        },
        {
            "city": "Regn\u00f3w",
            "region": "74",
            "country": "PL",
            "latitude": "51.7485",
            "longitude": "20.38711"
        },
        {
            "city": "Regimin",
            "region": "78",
            "country": "PL",
            "latitude": "52.94166",
            "longitude": "20.55319"
        },
        {
            "city": "Rawa Mazowiecka",
            "region": "74",
            "country": "PL",
            "latitude": "51.76437",
            "longitude": "20.25493"
        },
        {
            "city": "Raszyn",
            "region": "78",
            "country": "PL",
            "latitude": "52.15603",
            "longitude": "20.9226"
        },
        {
            "city": "Rani\u017c\u00f3w",
            "region": "80",
            "country": "PL",
            "latitude": "50.25873",
            "longitude": "21.97137"
        },
        {
            "city": "Rakszawa",
            "region": "80",
            "country": "PL",
            "latitude": "50.16051",
            "longitude": "22.23907"
        },
        {
            "city": "Rak\u00f3w",
            "region": "84",
            "country": "PL",
            "latitude": "50.67427",
            "longitude": "21.04517"
        },
        {
            "city": "Rajgr\u00f3d",
            "region": "81",
            "country": "PL",
            "latitude": "53.73102",
            "longitude": "22.70515"
        },
        {
            "city": "Radzy\u0144 Podlaski",
            "region": "75",
            "country": "PL",
            "latitude": "51.78333",
            "longitude": "22.61667"
        },
        {
            "city": "Radzymin",
            "region": "78",
            "country": "PL",
            "latitude": "52.41592",
            "longitude": "21.18414"
        },
        {
            "city": "Radzi\u0142\u00f3w",
            "region": "81",
            "country": "PL",
            "latitude": "53.40994",
            "longitude": "22.40988"
        },
        {
            "city": "Radziejowice",
            "region": "78",
            "country": "PL",
            "latitude": "52.00834",
            "longitude": "20.5477"
        },
        {
            "city": "Radzan\u00f3w",
            "region": "78",
            "country": "PL",
            "latitude": "52.94238",
            "longitude": "20.09219"
        },
        {
            "city": "Radzan\u00f3w",
            "region": "78",
            "country": "PL",
            "latitude": "51.55786",
            "longitude": "20.86398"
        },
        {
            "city": "Radymno",
            "region": "80",
            "country": "PL",
            "latitude": "49.9472",
            "longitude": "22.82375"
        },
        {
            "city": "Radoszyce",
            "region": "84",
            "country": "PL",
            "latitude": "51.07392",
            "longitude": "20.25836"
        },
        {
            "city": "Radomy\u015bl Wielki",
            "region": "80",
            "country": "PL",
            "latitude": "50.19693",
            "longitude": "21.27693"
        },
        {
            "city": "Radomy\u015bl",
            "region": "80",
            "country": "PL",
            "latitude": "50.68101",
            "longitude": "21.94365"
        },
        {
            "city": "Radom",
            "region": "78",
            "country": "PL",
            "latitude": "51.40253",
            "longitude": "21.14714"
        },
        {
            "city": "Rad\u0142\u00f3w",
            "region": "77",
            "country": "PL",
            "latitude": "50.08419",
            "longitude": "20.84967"
        },
        {
            "city": "Radgoszcz",
            "region": "77",
            "country": "PL",
            "latitude": "50.2058",
            "longitude": "21.11315"
        },
        {
            "city": "Radecznica",
            "region": "75",
            "country": "PL",
            "latitude": "50.75155",
            "longitude": "22.82976"
        },
        {
            "city": "Raczki",
            "region": "81",
            "country": "PL",
            "latitude": "53.98749",
            "longitude": "22.78487"
        },
        {
            "city": "Rac\u0142awice",
            "region": "80",
            "country": "PL",
            "latitude": "50.5137",
            "longitude": "22.16552"
        },
        {
            "city": "Raci\u0105\u017c",
            "region": "78",
            "country": "PL",
            "latitude": "52.78152",
            "longitude": "20.1177"
        },
        {
            "city": "Rachanie",
            "region": "75",
            "country": "PL",
            "latitude": "50.53842",
            "longitude": "23.54688"
        },
        {
            "city": "Pysznica",
            "region": "80",
            "country": "PL",
            "latitude": "50.56999",
            "longitude": "22.12913"
        },
        {
            "city": "Puszcza Maria\u0144ska",
            "region": "78",
            "country": "PL",
            "latitude": "51.97901",
            "longitude": "20.35037"
        },
        {
            "city": "Purda",
            "region": "85",
            "country": "PL",
            "latitude": "53.70844",
            "longitude": "20.70683"
        },
        {
            "city": "Pu\u0144sk",
            "region": "81",
            "country": "PL",
            "latitude": "54.25114",
            "longitude": "23.18124"
        },
        {
            "city": "Pu\u0142tusk",
            "region": "78",
            "country": "PL",
            "latitude": "52.7025",
            "longitude": "21.08276"
        },
        {
            "city": "Pu\u0142awy",
            "region": "75",
            "country": "PL",
            "latitude": "51.41655",
            "longitude": "21.96939"
        },
        {
            "city": "Puchacz\u00f3w",
            "region": "75",
            "country": "PL",
            "latitude": "51.3105",
            "longitude": "22.9737"
        },
        {
            "city": "Przytyk",
            "region": "78",
            "country": "PL",
            "latitude": "51.46567",
            "longitude": "20.90587"
        },
        {
            "city": "Przytoczno",
            "region": "75",
            "country": "PL",
            "latitude": "51.61951",
            "longitude": "22.27135"
        },
        {
            "city": "Przysucha",
            "region": "78",
            "country": "PL",
            "latitude": "51.35858",
            "longitude": "20.62889"
        },
        {
            "city": "Przy\u0142\u0119k",
            "region": "78",
            "country": "PL",
            "latitude": "51.30856",
            "longitude": "21.74744"
        },
        {
            "city": "Przybysz\u00f3wka",
            "region": "80",
            "country": "PL",
            "latitude": "50.04788",
            "longitude": "21.92579"
        },
        {
            "city": "Przybor\u00f3w",
            "region": "77",
            "country": "PL",
            "latitude": "50.03035",
            "longitude": "20.66279"
        },
        {
            "city": "Przeworsk",
            "region": "80",
            "country": "PL",
            "latitude": "50.05912",
            "longitude": "22.49408"
        },
        {
            "city": "Przesmyki",
            "region": "78",
            "country": "PL",
            "latitude": "52.26816",
            "longitude": "22.58394"
        },
        {
            "city": "Przemy\u015bl",
            "region": "80",
            "country": "PL",
            "latitude": "49.78498",
            "longitude": "22.76728"
        },
        {
            "city": "Prz\u0119dzel",
            "region": "80",
            "country": "PL",
            "latitude": "50.49465",
            "longitude": "22.21925"
        },
        {
            "city": "Przedmie\u015bcie Dubieckie",
            "region": "80",
            "country": "PL",
            "latitude": "49.8371",
            "longitude": "22.37177"
        },
        {
            "city": "Przec\u0142aw",
            "region": "80",
            "country": "PL",
            "latitude": "50.19339",
            "longitude": "21.48007"
        },
        {
            "city": "Przasnysz",
            "region": "78",
            "country": "PL",
            "latitude": "53.01907",
            "longitude": "20.88029"
        },
        {
            "city": "Pruszk\u00f3w",
            "region": "78",
            "country": "PL",
            "latitude": "52.17072",
            "longitude": "20.81214"
        },
        {
            "city": "Pruchnik",
            "region": "80",
            "country": "PL",
            "latitude": "49.9062",
            "longitude": "22.51554"
        },
        {
            "city": "Proszowice",
            "region": "77",
            "country": "PL",
            "latitude": "50.19275",
            "longitude": "20.28909"
        },
        {
            "city": "Prostki",
            "region": "85",
            "country": "PL",
            "latitude": "53.69901",
            "longitude": "22.43183"
        },
        {
            "city": "Promna",
            "region": "78",
            "country": "PL",
            "latitude": "51.68006",
            "longitude": "20.95917"
        },
        {
            "city": "Pra\u017cm\u00f3w",
            "region": "78",
            "country": "PL",
            "latitude": "51.9404",
            "longitude": "20.95479"
        },
        {
            "city": "Pozezdrze",
            "region": "85",
            "country": "PL",
            "latitude": "54.14147",
            "longitude": "21.8597"
        },
        {
            "city": "Potwor\u00f3w",
            "region": "78",
            "country": "PL",
            "latitude": "51.50874",
            "longitude": "20.72176"
        },
        {
            "city": "Potok Wielki",
            "region": "75",
            "country": "PL",
            "latitude": "50.7915",
            "longitude": "22.21642"
        },
        {
            "city": "Potok G\u00f3rny",
            "region": "75",
            "country": "PL",
            "latitude": "50.38477",
            "longitude": "22.56188"
        },
        {
            "city": "Po\u015bwi\u0119tne",
            "region": "78",
            "country": "PL",
            "latitude": "52.32967",
            "longitude": "21.42137"
        },
        {
            "city": "Po\u015bwi\u0119tne",
            "region": "74",
            "country": "PL",
            "latitude": "51.53203",
            "longitude": "20.36453"
        },
        {
            "city": "Poronin",
            "region": "77",
            "country": "PL",
            "latitude": "49.33781",
            "longitude": "20.00291"
        },
        {
            "city": "Por\u0119ba Spytkowska",
            "region": "77",
            "country": "PL",
            "latitude": "49.93995",
            "longitude": "20.55405"
        },
        {
            "city": "Por\u0119ba",
            "region": "77",
            "country": "PL",
            "latitude": "49.79645",
            "longitude": "20.01718"
        },
        {
            "city": "Pora\u017c",
            "region": "80",
            "country": "PL",
            "latitude": "49.48597",
            "longitude": "22.225"
        },
        {
            "city": "Por\u0105bka Uszewska",
            "region": "77",
            "country": "PL",
            "latitude": "49.9426",
            "longitude": "20.69052"
        },
        {
            "city": "Poniatowa",
            "region": "75",
            "country": "PL",
            "latitude": "51.17983",
            "longitude": "22.13093"
        },
        {
            "city": "Pomiech\u00f3wek",
            "region": "78",
            "country": "PL",
            "latitude": "52.47138",
            "longitude": "20.72923"
        },
        {
            "city": "Po\u0142omia",
            "region": "80",
            "country": "PL",
            "latitude": "49.90475",
            "longitude": "21.89198"
        },
        {
            "city": "Policzna",
            "region": "78",
            "country": "PL",
            "latitude": "51.45545",
            "longitude": "21.62684"
        },
        {
            "city": "Po\u0142aniec",
            "region": "84",
            "country": "PL",
            "latitude": "50.43324",
            "longitude": "21.2812"
        },
        {
            "city": "Pola\u0144czyk",
            "region": "80",
            "country": "PL",
            "latitude": "49.36969",
            "longitude": "22.42112"
        },
        {
            "city": "Pokrzywnica",
            "region": "78",
            "country": "PL",
            "latitude": "52.62072",
            "longitude": "21.01925"
        },
        {
            "city": "Pokr\u00f3wka",
            "region": "75",
            "country": "PL",
            "latitude": "51.09479",
            "longitude": "23.46345"
        },
        {
            "city": "Pog\u00f3rska Wola",
            "region": "77",
            "country": "PL",
            "latitude": "50.01855",
            "longitude": "21.15795"
        },
        {
            "city": "Pod\u0142\u0119\u017ce",
            "region": "77",
            "country": "PL",
            "latitude": "50.01458",
            "longitude": "20.16781"
        },
        {
            "city": "Podkowa Le\u015bna",
            "region": "78",
            "country": "PL",
            "latitude": "52.12237",
            "longitude": "20.72665"
        },
        {
            "city": "Podegrodzie",
            "region": "77",
            "country": "PL",
            "latitude": "49.57688",
            "longitude": "20.58855"
        },
        {
            "city": "Podedw\u00f3rze",
            "region": "75",
            "country": "PL",
            "latitude": "51.68815",
            "longitude": "23.19961"
        },
        {
            "city": "Pniewy",
            "region": "78",
            "country": "PL",
            "latitude": "51.91468",
            "longitude": "20.74578"
        },
        {
            "city": "P\u0142o\u0144sk",
            "region": "78",
            "country": "PL",
            "latitude": "52.62348",
            "longitude": "20.37552"
        },
        {
            "city": "P\u0142oniawy-Bramura",
            "region": "78",
            "country": "PL",
            "latitude": "52.9778",
            "longitude": "21.07178"
        },
        {
            "city": "Ple\u015bna",
            "region": "77",
            "country": "PL",
            "latitude": "49.92642",
            "longitude": "20.94526"
        },
        {
            "city": "Piwniczna-Zdr\u00f3j",
            "region": "77",
            "country": "PL",
            "latitude": "49.44056",
            "longitude": "20.71423"
        },
        {
            "city": "Piszczac",
            "region": "75",
            "country": "PL",
            "latitude": "51.98118",
            "longitude": "23.37719"
        },
        {
            "city": "Pisz",
            "region": "85",
            "country": "PL",
            "latitude": "53.62744",
            "longitude": "21.81253"
        },
        {
            "city": "Piskorowice",
            "region": "80",
            "country": "PL",
            "latitude": "50.23579",
            "longitude": "22.52867"
        },
        {
            "city": "Pionki",
            "region": "78",
            "country": "PL",
            "latitude": "51.47604",
            "longitude": "21.44995"
        },
        {
            "city": "Pi\u0144cz\u00f3w",
            "region": "84",
            "country": "PL",
            "latitude": "50.52052",
            "longitude": "20.52649"
        },
        {
            "city": "Pilzno",
            "region": "80",
            "country": "PL",
            "latitude": "49.97883",
            "longitude": "21.29228"
        },
        {
            "city": "Pilawa",
            "region": "78",
            "country": "PL",
            "latitude": "51.95945",
            "longitude": "21.53089"
        },
        {
            "city": "Pierzchnica",
            "region": "84",
            "country": "PL",
            "latitude": "50.69754",
            "longitude": "20.75489"
        },
        {
            "city": "Pieni\u0119\u017cno",
            "region": "85",
            "country": "PL",
            "latitude": "54.23649",
            "longitude": "20.12833"
        },
        {
            "city": "Piekosz\u00f3w",
            "region": "84",
            "country": "PL",
            "latitude": "50.88035",
            "longitude": "20.46418"
        },
        {
            "city": "Piecki",
            "region": "85",
            "country": "PL",
            "latitude": "53.75759",
            "longitude": "21.33914"
        },
        {
            "city": "Pi\u0105tnica",
            "region": "81",
            "country": "PL",
            "latitude": "53.19657",
            "longitude": "22.09591"
        },
        {
            "city": "Piast\u00f3w",
            "region": "78",
            "country": "PL",
            "latitude": "52.18435",
            "longitude": "20.83952"
        },
        {
            "city": "Piaski",
            "region": "75",
            "country": "PL",
            "latitude": "51.13892",
            "longitude": "22.84856"
        },
        {
            "city": "Piaseczno",
            "region": "78",
            "country": "PL",
            "latitude": "52.0814",
            "longitude": "21.02397"
        },
        {
            "city": "Perlejewo",
            "region": "81",
            "country": "PL",
            "latitude": "52.56676",
            "longitude": "22.56457"
        },
        {
            "city": "Paw\u0142\u00f3w",
            "region": "84",
            "country": "PL",
            "latitude": "50.96216",
            "longitude": "21.12062"
        },
        {
            "city": "Paw\u0142osi\u00f3w",
            "region": "80",
            "country": "PL",
            "latitude": "49.99533",
            "longitude": "22.64763"
        },
        {
            "city": "Pawlikowice",
            "region": "77",
            "country": "PL",
            "latitude": "49.9531",
            "longitude": "20.05486"
        },
        {
            "city": "Pasym",
            "region": "85",
            "country": "PL",
            "latitude": "53.65069",
            "longitude": "20.79188"
        },
        {
            "city": "Parys\u00f3w",
            "region": "78",
            "country": "PL",
            "latitude": "51.97584",
            "longitude": "21.68006"
        },
        {
            "city": "Parczew",
            "region": "75",
            "country": "PL",
            "latitude": "51.64021",
            "longitude": "22.90057"
        },
        {
            "city": "Parady\u017c",
            "region": "74",
            "country": "PL",
            "latitude": "51.30604",
            "longitude": "20.11374"
        },
        {
            "city": "Paprotnia",
            "region": "78",
            "country": "PL",
            "latitude": "52.30071",
            "longitude": "22.46756"
        },
        {
            "city": "Paprotnia",
            "region": "78",
            "country": "PL",
            "latitude": "52.20513",
            "longitude": "20.4232"
        },
        {
            "city": "Pantalowice",
            "region": "80",
            "country": "PL",
            "latitude": "49.9521",
            "longitude": "22.43563"
        },
        {
            "city": "Padew Narodowa",
            "region": "80",
            "country": "PL",
            "latitude": "50.43947",
            "longitude": "21.50059"
        },
        {
            "city": "Pacan\u00f3w",
            "region": "84",
            "country": "PL",
            "latitude": "50.40031",
            "longitude": "21.04148"
        },
        {
            "city": "O\u017car\u00f3w Mazowiecki",
            "region": "78",
            "country": "PL",
            "latitude": "52.21039",
            "longitude": "20.79716"
        },
        {
            "city": "O\u017car\u00f3w",
            "region": "84",
            "country": "PL",
            "latitude": "50.88798",
            "longitude": "21.66658"
        },
        {
            "city": "Owczarnia",
            "region": "78",
            "country": "PL",
            "latitude": "52.11114",
            "longitude": "20.70468"
        },
        {
            "city": "Otwock",
            "region": "78",
            "country": "PL",
            "latitude": "52.10577",
            "longitude": "21.26129"
        },
        {
            "city": "Otr\u0119busy",
            "region": "78",
            "country": "PL",
            "latitude": "52.12843",
            "longitude": "20.76073"
        },
        {
            "city": "Ostrowsko",
            "region": "77",
            "country": "PL",
            "latitude": "49.47616",
            "longitude": "20.10052"
        },
        {
            "city": "Ostr\u00f3w Mazowiecka",
            "region": "78",
            "country": "PL",
            "latitude": "52.80245",
            "longitude": "21.89507"
        },
        {
            "city": "Ostr\u00f3w Lubelski",
            "region": "75",
            "country": "PL",
            "latitude": "51.49416",
            "longitude": "22.85287"
        },
        {
            "city": "Ostrowiec \u015awi\u0119tokrzyski",
            "region": "84",
            "country": "PL",
            "latitude": "50.92936",
            "longitude": "21.38525"
        },
        {
            "city": "Ostr\u00f3wek",
            "region": "78",
            "country": "PL",
            "latitude": "52.5535",
            "longitude": "21.76014"
        },
        {
            "city": "Ostr\u00f3wek",
            "region": "75",
            "country": "PL",
            "latitude": "51.5815",
            "longitude": "22.61227"
        },
        {
            "city": "Ostr\u00f3w",
            "region": "80",
            "country": "PL",
            "latitude": "50.09779",
            "longitude": "21.5932"
        },
        {
            "city": "Ostr\u00f3w",
            "region": "80",
            "country": "PL",
            "latitude": "49.96812",
            "longitude": "22.7871"
        },
        {
            "city": "Ostro\u0142\u0119ka",
            "region": "78",
            "country": "PL",
            "latitude": "53.08621",
            "longitude": "21.57566"
        },
        {
            "city": "Osiek Jasielski",
            "region": "80",
            "country": "PL",
            "latitude": "49.63784",
            "longitude": "21.4884"
        },
        {
            "city": "Osiek",
            "region": "84",
            "country": "PL",
            "latitude": "50.51996",
            "longitude": "21.44192"
        },
        {
            "city": "Osieczany",
            "region": "77",
            "country": "PL",
            "latitude": "49.84252",
            "longitude": "19.98207"
        },
        {
            "city": "Osieck",
            "region": "78",
            "country": "PL",
            "latitude": "51.96653",
            "longitude": "21.41913"
        },
        {
            "city": "Orzysz",
            "region": "85",
            "country": "PL",
            "latitude": "53.80967",
            "longitude": "21.94811"
        },
        {
            "city": "Orzech\u00f3wka",
            "region": "80",
            "country": "PL",
            "latitude": "49.7308",
            "longitude": "21.94519"
        },
        {
            "city": "Oro\u0144sko",
            "region": "78",
            "country": "PL",
            "latitude": "51.31339",
            "longitude": "20.99067"
        },
        {
            "city": "Orneta",
            "region": "85",
            "country": "PL",
            "latitude": "54.11483",
            "longitude": "20.13328"
        },
        {
            "city": "Or\u0142y",
            "region": "80",
            "country": "PL",
            "latitude": "49.87107",
            "longitude": "22.80298"
        },
        {
            "city": "Orla",
            "region": "81",
            "country": "PL",
            "latitude": "52.70546",
            "longitude": "23.33213"
        },
        {
            "city": "Opole Lubelskie",
            "region": "75",
            "country": "PL",
            "latitude": "51.14775",
            "longitude": "21.96897"
        },
        {
            "city": "Opoczno",
            "region": "74",
            "country": "PL",
            "latitude": "51.37569",
            "longitude": "20.27827"
        },
        {
            "city": "Opinog\u00f3ra G\u00f3rna",
            "region": "78",
            "country": "PL",
            "latitude": "52.90554",
            "longitude": "20.71781"
        },
        {
            "city": "Opatowiec",
            "region": "84",
            "country": "PL",
            "latitude": "50.24314",
            "longitude": "20.72348"
        },
        {
            "city": "Opat\u00f3w",
            "region": "84",
            "country": "PL",
            "latitude": "50.80058",
            "longitude": "21.42538"
        },
        {
            "city": "Olsztynek",
            "region": "85",
            "country": "PL",
            "latitude": "53.58374",
            "longitude": "20.28471"
        },
        {
            "city": "Olsztyn",
            "region": "85",
            "country": "PL",
            "latitude": "53.77995",
            "longitude": "20.49416"
        },
        {
            "city": "Olsz\u00f3wka",
            "region": "77",
            "country": "PL",
            "latitude": "49.61455",
            "longitude": "20.02885"
        },
        {
            "city": "Olszanica",
            "region": "80",
            "country": "PL",
            "latitude": "49.47741",
            "longitude": "22.44382"
        },
        {
            "city": "Olszana",
            "region": "77",
            "country": "PL",
            "latitude": "49.56748",
            "longitude": "20.52126"
        },
        {
            "city": "O\u0142piny",
            "region": "77",
            "country": "PL",
            "latitude": "49.80686",
            "longitude": "21.20464"
        },
        {
            "city": "Oleszyce",
            "region": "80",
            "country": "PL",
            "latitude": "50.1675",
            "longitude": "23.03481"
        },
        {
            "city": "Olesno",
            "region": "77",
            "country": "PL",
            "latitude": "50.20152",
            "longitude": "20.92578"
        },
        {
            "city": "Ole\u015bnica",
            "region": "84",
            "country": "PL",
            "latitude": "50.45357",
            "longitude": "21.06457"
        },
        {
            "city": "Olecko",
            "region": "85",
            "country": "PL",
            "latitude": "54.03374",
            "longitude": "22.50704"
        },
        {
            "city": "Oksa",
            "region": "84",
            "country": "PL",
            "latitude": "50.72874",
            "longitude": "20.10086"
        },
        {
            "city": "Okocim",
            "region": "77",
            "country": "PL",
            "latitude": "49.9489",
            "longitude": "20.6016"
        },
        {
            "city": "Ojrze\u0144",
            "region": "78",
            "country": "PL",
            "latitude": "52.7657",
            "longitude": "20.54315"
        },
        {
            "city": "Odrzyw\u00f3\u0142",
            "region": "78",
            "country": "PL",
            "latitude": "51.51953",
            "longitude": "20.55559"
        },
        {
            "city": "Odrzyko\u0144",
            "region": "80",
            "country": "PL",
            "latitude": "49.74057",
            "longitude": "21.74074"
        },
        {
            "city": "Ochotnica Dolna",
            "region": "77",
            "country": "PL",
            "latitude": "49.52682",
            "longitude": "20.34265"
        },
        {
            "city": "Obsza",
            "region": "75",
            "country": "PL",
            "latitude": "50.3152",
            "longitude": "22.95688"
        },
        {
            "city": "Obryte",
            "region": "78",
            "country": "PL",
            "latitude": "52.71633",
            "longitude": "21.24945"
        },
        {
            "city": "Obraz\u00f3w",
            "region": "84",
            "country": "PL",
            "latitude": "50.69276",
            "longitude": "21.65045"
        },
        {
            "city": "Nurzec-Stacja",
            "region": "81",
            "country": "PL",
            "latitude": "52.46249",
            "longitude": "23.08571"
        },
        {
            "city": "Nur",
            "region": "78",
            "country": "PL",
            "latitude": "52.66826",
            "longitude": "22.32207"
        },
        {
            "city": "Nozdrzec",
            "region": "80",
            "country": "PL",
            "latitude": "49.77323",
            "longitude": "22.19865"
        },
        {
            "city": "Nowy \u017bmigr\u00f3d",
            "region": "80",
            "country": "PL",
            "latitude": "49.60353",
            "longitude": "21.52376"
        },
        {
            "city": "Nowy Wi\u015bnicz",
            "region": "77",
            "country": "PL",
            "latitude": "49.91465",
            "longitude": "20.46109"
        },
        {
            "city": "Nowy Targ",
            "region": "77",
            "country": "PL",
            "latitude": "49.47783",
            "longitude": "20.03228"
        },
        {
            "city": "Nowy S\u0105cz",
            "region": "77",
            "country": "PL",
            "latitude": "49.62177",
            "longitude": "20.69705"
        },
        {
            "city": "Nowy Korczyn",
            "region": "84",
            "country": "PL",
            "latitude": "50.30124",
            "longitude": "20.80759"
        },
        {
            "city": "Nowy Dw\u00f3r Mazowiecki",
            "region": "78",
            "country": "PL",
            "latitude": "52.43022",
            "longitude": "20.71652"
        },
        {
            "city": "Nowosielce-Gniewosz",
            "region": "80",
            "country": "PL",
            "latitude": "49.56842",
            "longitude": "22.06947"
        },
        {
            "city": "Nowosielce",
            "region": "80",
            "country": "PL",
            "latitude": "50.05747",
            "longitude": "22.41056"
        },
        {
            "city": "Nowogr\u00f3d",
            "region": "81",
            "country": "PL",
            "latitude": "53.22698",
            "longitude": "21.8821"
        },
        {
            "city": "Nowodw\u00f3r",
            "region": "75",
            "country": "PL",
            "latitude": "51.63901",
            "longitude": "22.10183"
        },